{"center": {"lat": 33.98663288112393, "lng": -118.26503165403719}, "zoom": 11, "size": 19, "size_pixels": 640, "locations": [{"raw_location": {"lat": 34.16801338327387, "lng": -118.48378165403719}, "snapped_location": {"lat": 34.1687422, "lng": -118.4837226}, "grid_x": 0, "grid_y": 0, "snap_result_types": ["route"], "snap_result_place_id": "ChIJEcKTCIGXwoAR5jhsQW6I8tU"}, {"raw_location": {"lat": 34.16801338327387, "lng": -118.45947609848163}, "snapped_location": {"lat": 34.1676467, "lng": -118.4596373}, "grid_x": 1, "grid_y": 0, "snap_result_types": ["route"], "snap_result_place_id": "ChIJlVQvLKOXwoARQp5wOcrFNro"}, {"raw_location": {"lat": 34.16801338327387, "lng": -118.43517054292607}, "snapped_location": {"lat": 34.1679274, "lng": -118.435624}, "grid_x": 2, "grid_y": 0, "snap_result_types": ["route"], "snap_result_place_id": "ChIJ6_foi0uWwoARDB73_mI5ZrI"}, {"raw_location": {"lat": 34.16801338327387, "lng": -118.41086498737052}, "snapped_location": {"lat": 34.1683057, "lng": -118.4108451}, "grid_x": 3, "grid_y": 0, "snap_result_types": ["route"], "snap_result_place_id": "ChIJr7xQoBSWwoAR9g8eRrkT_m8"}, {"raw_location": {"lat": 34.16801338327387, "lng": -118.38655943181496}, "snapped_location": {"lat": 34.1679807, "lng": -118.3864148}, "grid_x": 4, "grid_y": 0, "snap_result_types": ["route"], "snap_result_place_id": "ChIJBegvfeSVwoARcpuGXTz_BSQ"}, {"raw_location": {"lat": 34.16801338327387, "lng": -118.36225387625942}, "snapped_location": {"lat": 34.1679629, "lng": -118.3615619}, "grid_x": 5, "grid_y": 0, "snap_result_types": ["route"], "snap_result_place_id": "ChIJDROE6I6VwoARIo9GZBQsrSQ"}, {"raw_location": {"lat": 34.16801338327387, "lng": -118.33794832070386}, "snapped_location": {"lat": 34.1688589, "lng": -118.3380436}, "grid_x": 6, "grid_y": 0, "snap_result_types": ["route"], "snap_result_place_id": "ChIJ6xOQpH2VwoAR5h6fORJ1H_o"}, {"raw_location": {"lat": 34.16801338327387, "lng": -118.3136427651483}, "snapped_location": {"lat": 34.168073, "lng": -118.3136096}, "grid_x": 7, "grid_y": 0, "snap_result_types": ["route"], "snap_result_place_id": "ChIJRSo0guS_woARauNMhYgYr4A"}, {"raw_location": {"lat": 34.16801338327387, "lng": -118.28933720959274}, "snapped_location": {"lat": 34.1686012, "lng": -118.2889919}, "grid_x": 8, "grid_y": 0, "snap_result_types": ["route"], "snap_result_place_id": "ChIJvy1y7Q_AwoARMBIBAdb9kZ8"}, {"raw_location": {"lat": 34.16801338327387, "lng": -118.26503165403719}, "snapped_location": {"lat": 34.1674641, "lng": -118.2646949}, "grid_x": 9, "grid_y": 0, "snap_result_types": ["route"], "snap_result_place_id": "ChIJu16S0DnAwoAR-PLI-B_Ac6I"}, {"raw_location": {"lat": 34.16801338327387, "lng": -118.24072609848163}, "snapped_location": {"lat": 34.168469, "lng": -118.2404124}, "grid_x": 10, "grid_y": 0, "snap_result_types": ["route"], "snap_result_place_id": "ChIJe1T10rnBwoARBnj9LrPtRRs"}, {"raw_location": {"lat": 34.16801338327387, "lng": -118.21642054292607}, "snapped_location": {"lat": 34.1682301, "lng": -118.2165939}, "grid_x": 11, "grid_y": 0, "snap_result_types": ["route"], "snap_result_place_id": "ChIJD3wOwo_BwoARbhSTwJwugO8"}, {"raw_location": {"lat": 34.16801338327387, "lng": -118.19211498737052}, "snapped_location": {"lat": 34.1679444, "lng": -118.192732}, "grid_x": 12, "grid_y": 0, "snap_result_types": ["route"], "snap_result_place_id": "ChIJS2ODjDHCwoARvvr8Hjlsv5Q"}, {"raw_location": {"lat": 34.16801338327387, "lng": -118.16780943181496}, "snapped_location": {"lat": 34.1671315, "lng": -118.1671176}, "grid_x": 13, "grid_y": 0, "snap_result_types": ["route"], "snap_result_place_id": "ChIJW7KIJlPCwoARMGwq-NNY2cs"}, {"raw_location": {"lat": 34.16801338327387, "lng": -118.14350387625942}, "snapped_location": {"lat": 34.16787619999999, "lng": -118.1438874}, "grid_x": 14, "grid_y": 0, "snap_result_types": ["route"], "snap_result_place_id": "ChIJtcX-pBvDwoARwLI0899UdTA"}, {"raw_location": {"lat": 34.16801338327387, "lng": -118.11919832070386}, "snapped_location": {"lat": 34.1678792, "lng": -118.1191127}, "grid_x": 15, "grid_y": 0, "snap_result_types": ["route"], "snap_result_place_id": "ChIJvWPudjHDwoARepynW6xppww"}, {"raw_location": {"lat": 34.16801338327387, "lng": -118.0948927651483}, "snapped_location": {"lat": 34.1681737, "lng": -118.0944876}, "grid_x": 16, "grid_y": 0, "snap_result_types": ["route"], "snap_result_place_id": "ChIJbX5bLMfcwoARcuk2o18nFhw"}, {"raw_location": {"lat": 34.16801338327387, "lng": -118.07058720959274}, "snapped_location": {"lat": 34.1676577, "lng": -118.0706235}, "grid_x": 17, "grid_y": 0, "snap_result_types": ["route"], "snap_result_place_id": "ChIJk0pa-4vcwoARbkcD6s5Iimc"}, {"raw_location": {"lat": 34.16801338327387, "lng": -118.04628165403719}, "snapped_location": {"lat": 34.1681061, "lng": -118.0466724}, "grid_x": 18, "grid_y": 0, "snap_result_types": ["route"], "snap_result_place_id": "ChIJQ-nPC3LcwoARyt-rGuWtZZI"}, {"raw_location": {"lat": 34.1478599941461, "lng": -118.48378165403719}, "snapped_location": {"lat": 34.1476444, "lng": -118.4828918}, "grid_x": 0, "grid_y": 1, "snap_result_types": ["route"], "snap_result_place_id": "ChIJw3JaSPSXwoARVPfZeakKD80"}, {"raw_location": {"lat": 34.1478599941461, "lng": -118.45947609848163}, "snapped_location": {"lat": 34.147996, "lng": -118.4588846}, "grid_x": 1, "grid_y": 1, "snap_result_types": ["route"], "snap_result_place_id": "ChIJKZjJN8OXwoARbPeplDNeNVw"}, {"raw_location": {"lat": 34.1478599941461, "lng": -118.43517054292607}, "snapped_location": {"lat": 34.1478534, "lng": -118.4350233}, "grid_x": 2, "grid_y": 1, "snap_result_types": ["route"], "snap_result_place_id": "ChIJ-ejJ6yuWwoARuJbqAmRADUA"}, {"raw_location": {"lat": 34.1478599941461, "lng": -118.41086498737052}, "snapped_location": {"lat": 34.1475998, "lng": -118.4104354}, "grid_x": 3, "grid_y": 1, "snap_result_types": ["route"], "snap_result_place_id": "ChIJlSKDdfa9woARLMx2e71bEt0"}, {"raw_location": {"lat": 34.1478599941461, "lng": -118.38655943181496}, "snapped_location": {"lat": 34.148149, "lng": -118.3866589}, "grid_x": 4, "grid_y": 1, "snap_result_types": ["route"], "snap_result_place_id": "ChIJA0weLAS-woARNvqrHMIA3t4"}, {"raw_location": {"lat": 34.1478599941461, "lng": -118.36225387625942}, "snapped_location": {"lat": 34.1479044, "lng": -118.3623219}, "grid_x": 5, "grid_y": 1, "snap_result_types": ["route"], "snap_result_place_id": "ChIJ7w78mzu-woARHFgdXLKPoVg"}, {"raw_location": {"lat": 34.1478599941461, "lng": -118.33794832070386}, "snapped_location": {"lat": 34.1481158, "lng": -118.338076}, "grid_x": 6, "grid_y": 1, "snap_result_types": ["route"], "snap_result_place_id": "ChIJCRa_t8m_woARsGH-8MTmVUM"}, {"raw_location": {"lat": 34.1478599941461, "lng": -118.3136427651483}, "snapped_location": {"lat": 34.1479447, "lng": -118.3130291}, "grid_x": 7, "grid_y": 1, "snap_result_types": ["route"], "snap_result_place_id": "ChIJeWv3MZK_woARnqZQy1M71DA"}, {"raw_location": {"lat": 34.1478599941461, "lng": -118.28933720959274}, "snapped_location": {"lat": 34.1479474, "lng": -118.2890216}, "grid_x": 8, "grid_y": 1, "snap_result_types": ["route"], "snap_result_place_id": "ChIJNR3TpHrAwoAR-vmDyfBtbXI"}, {"raw_location": {"lat": 34.1478599941461, "lng": -118.26503165403719}, "snapped_location": {"lat": 34.1479946, "lng": -118.2650806}, "grid_x": 9, "grid_y": 1, "snap_result_types": ["route"], "snap_result_place_id": "ChIJTcl_xFnAwoARFsUYGbDnKdg"}, {"raw_location": {"lat": 34.1478599941461, "lng": -118.24072609848163}, "snapped_location": {"lat": 34.1481008, "lng": -118.2404887}, "grid_x": 10, "grid_y": 1, "snap_result_types": ["route"], "snap_result_place_id": "ChIJt35hhwjBwoARYiTgwvTgfW4"}, {"raw_location": {"lat": 34.1478599941461, "lng": -118.21642054292607}, "snapped_location": {"lat": 34.1493158, "lng": -118.2158422}, "grid_x": 11, "grid_y": 1, "snap_result_types": ["route"], "snap_result_place_id": "ChIJI9DeXnrBwoARbkECqS2Qe-E"}, {"raw_location": {"lat": 34.1478599941461, "lng": -118.19211498737052}, "snapped_location": {"lat": 34.1462929, "lng": -118.1925795}, "grid_x": 12, "grid_y": 1, "snap_result_types": ["route"], "snap_result_place_id": "ChIJE-QgasPDwoAR8pSzgIYiHP0"}, {"raw_location": {"lat": 34.1478599941461, "lng": -118.16780943181496}, "snapped_location": {"lat": 34.1476986, "lng": -118.1676929}, "grid_x": 13, "grid_y": 1, "snap_result_types": ["route"], "snap_result_place_id": "ChIJOwMogaLDwoARWvjDJvfxjog"}, {"raw_location": {"lat": 34.1478599941461, "lng": -118.14350387625942}, "snapped_location": {"lat": 34.14764, "lng": -118.1429585}, "grid_x": 14, "grid_y": 1, "snap_result_types": ["route"], "snap_result_place_id": "ChIJexJ7wm7DwoARAEaMoZ0vXwg"}, {"raw_location": {"lat": 34.1478599941461, "lng": -118.11919832070386}, "snapped_location": {"lat": 34.1481425, "lng": -118.1194746}, "grid_x": 15, "grid_y": 1, "snap_result_types": ["street_address"], "snap_result_place_id": "ChIJm3QAvVHDwoARZzckI3UZSS8"}, {"raw_location": {"lat": 34.1478599941461, "lng": -118.0948927651483}, "snapped_location": {"lat": 34.1480128, "lng": -118.0947929}, "grid_x": 16, "grid_y": 1, "snap_result_types": ["route"], "snap_result_place_id": "ChIJL5T_LKfcwoAR3pDBC5TwkAA"}, {"raw_location": {"lat": 34.1478599941461, "lng": -118.07058720959274}, "snapped_location": {"lat": 34.1476133, "lng": -118.070513}, "grid_x": 17, "grid_y": 1, "snap_result_types": ["route"], "snap_result_place_id": "ChIJ06KHpn7bwoARYGkBXR9d7Uk"}, {"raw_location": {"lat": 34.1478599941461, "lng": -118.04628165403719}, "snapped_location": {"lat": 34.147655, "lng": -118.047242}, "grid_x": 18, "grid_y": 1, "snap_result_types": ["route"], "snap_result_place_id": "ChIJ-9lF-I3bwoARACMkmVv6DTg"}, {"raw_location": {"lat": 34.12770660501833, "lng": -118.48378165403719}, "snapped_location": {"lat": 34.1278749, "lng": -118.4847025}, "grid_x": 0, "grid_y": 2, "snap_result_types": ["route"], "snap_result_place_id": "ChIJVZ8U5FS9woARECR6UQ3u5KM"}, {"raw_location": {"lat": 34.12770660501833, "lng": -118.45947609848163}, "snapped_location": {"lat": 34.128521, "lng": -118.4584377}, "grid_x": 1, "grid_y": 2, "snap_result_types": ["route"], "snap_result_place_id": "ChIJLzs3XWa9woARKlCHz9yx_Ok"}, {"raw_location": {"lat": 34.12770660501833, "lng": -118.43517054292607}, "snapped_location": {"lat": 34.1281454, "lng": -118.4359585}, "grid_x": 2, "grid_y": 2, "snap_result_types": ["route"], "snap_result_place_id": "ChIJRw0sOJy9woARtlaClTL8oxU"}, {"raw_location": {"lat": 34.12770660501833, "lng": -118.41086498737052}, "snapped_location": {"lat": 34.1290122, "lng": -118.4092614}, "grid_x": 3, "grid_y": 2, "snap_result_types": ["route"], "snap_result_place_id": "ChIJM8b_3-m9woAR5hUJJbDo4pM"}, {"raw_location": {"lat": 34.12770660501833, "lng": -118.38655943181496}, "snapped_location": {"lat": 34.1274081, "lng": -118.3863331}, "grid_x": 4, "grid_y": 2, "snap_result_types": ["route"], "snap_result_place_id": "ChIJe-BKL3G-woARuBKtlUaXf7I"}, {"raw_location": {"lat": 34.12770660501833, "lng": -118.36225387625942}, "snapped_location": {"lat": 34.1282963, "lng": -118.3619085}, "grid_x": 5, "grid_y": 2, "snap_result_types": ["route"], "snap_result_place_id": "ChIJgZWKCFu-woARur5PS5e7ylQ"}, {"raw_location": {"lat": 34.12770660501833, "lng": -118.33794832070386}, "snapped_location": {"lat": 34.1303358, "lng": -118.3376156}, "grid_x": 6, "grid_y": 2, "snap_result_types": ["route"], "snap_result_place_id": "ChIJFRuI3qi_woARxBc3bdmM6Jg"}, {"raw_location": {"lat": 34.12770660501833, "lng": -118.3136427651483}, "snapped_location": {"lat": 34.1288538, "lng": -118.3143584}, "grid_x": 7, "grid_y": 2, "snap_result_types": ["route"], "snap_result_place_id": "ChIJpw5c43a_woARXGTOBR9x_VA"}, {"raw_location": {"lat": 34.12770660501833, "lng": -118.28933720959274}, "snapped_location": {"lat": 34.1267065, "lng": -118.2888045}, "grid_x": 8, "grid_y": 2, "snap_result_types": ["route"], "snap_result_place_id": "ChIJQxWr1prAwoAR3hFSH3qW2ps"}, {"raw_location": {"lat": 34.12770660501833, "lng": -118.26503165403719}, "snapped_location": {"lat": 34.1275562, "lng": -118.2649918}, "grid_x": 9, "grid_y": 2, "snap_result_types": ["route"], "snap_result_place_id": "ChIJr0Y9mujAwoARVmYQ_GVP-BI"}, {"raw_location": {"lat": 34.12770660501833, "lng": -118.24072609848163}, "snapped_location": {"lat": 34.12716899999999, "lng": -118.240471}, "grid_x": 10, "grid_y": 2, "snap_result_types": ["route"], "snap_result_place_id": "ChIJhYzT0TzBwoARbCSo1aBEdAo"}, {"raw_location": {"lat": 34.12770660501833, "lng": -118.21642054292607}, "snapped_location": {"lat": 34.1274155, "lng": -118.2167257}, "grid_x": 11, "grid_y": 2, "snap_result_types": ["route"], "snap_result_place_id": "ChIJRWhpxlrBwoARLnSkQU6qVqo"}, {"raw_location": {"lat": 34.12770660501833, "lng": -118.19211498737052}, "snapped_location": {"lat": 34.1272983, "lng": -118.1916813}, "grid_x": 12, "grid_y": 2, "snap_result_types": ["route"], "snap_result_place_id": "ChIJA_Pw0_DDwoARIqNOLqgiiEE"}, {"raw_location": {"lat": 34.12770660501833, "lng": -118.16780943181496}, "snapped_location": {"lat": 34.1280017, "lng": -118.1670367}, "grid_x": 13, "grid_y": 2, "snap_result_types": ["route"], "snap_result_place_id": "ChIJTd1VnHjEwoARWs9auLPcA44"}, {"raw_location": {"lat": 34.12770660501833, "lng": -118.14350387625942}, "snapped_location": {"lat": 34.1275592, "lng": -118.1443725}, "grid_x": 14, "grid_y": 2, "snap_result_types": ["route"], "snap_result_place_id": "ChIJ4Y04mZvEwoARJJLGaD28Z9s"}, {"raw_location": {"lat": 34.12770660501833, "lng": -118.11919832070386}, "snapped_location": {"lat": 34.1259289, "lng": -118.1183099}, "grid_x": 15, "grid_y": 2, "snap_result_types": ["route"], "snap_result_place_id": "ChIJlTo13bPEwoARYLxRmKjnjAU"}, {"raw_location": {"lat": 34.12770660501833, "lng": -118.0948927651483}, "snapped_location": {"lat": 34.1281532, "lng": -118.094763}, "grid_x": 16, "grid_y": 2, "snap_result_types": ["route"], "snap_result_place_id": "ChIJAeO9LkfbwoARDhdwR3rdEwI"}, {"raw_location": {"lat": 34.12770660501833, "lng": -118.07058720959274}, "snapped_location": {"lat": 34.1278775, "lng": -118.070559}, "grid_x": 17, "grid_y": 2, "snap_result_types": ["route"], "snap_result_place_id": "ChIJS4kJkgvbwoARMkLS2hVFSUA"}, {"raw_location": {"lat": 34.12770660501833, "lng": -118.04628165403719}, "snapped_location": {"lat": 34.1277103, "lng": -118.0458643}, "grid_x": 18, "grid_y": 2, "snap_result_types": ["route"], "snap_result_place_id": "ChIJGfsIx7nbwoAR6jqElKm2KYs"}, {"raw_location": {"lat": 34.10755321589056, "lng": -118.48378165403719}, "snapped_location": {"lat": 34.1076013, "lng": -118.4843599}, "grid_x": 0, "grid_y": 3, "snap_result_types": ["route"], "snap_result_place_id": "ChIJSc6gHTW9woARdKjnBkVXGRY"}, {"raw_location": {"lat": 34.10755321589056, "lng": -118.45947609848163}, "snapped_location": {"lat": 34.108107, "lng": -118.4615001}, "grid_x": 1, "grid_y": 3, "snap_result_types": ["route"], "snap_result_place_id": "ChIJN-xZyBe9woARtJMa8iQbqkw"}, {"raw_location": {"lat": 34.10755321589056, "lng": -118.43517054292607}, "snapped_location": {"lat": 34.1076612, "lng": -118.4363034}, "grid_x": 2, "grid_y": 3, "snap_result_types": ["route"], "snap_result_place_id": "ChIJUS-gcam9woARRkiYFaIALKg"}, {"raw_location": {"lat": 34.10755321589056, "lng": -118.41086498737052}, "snapped_location": {"lat": 34.1085435, "lng": -118.4110265}, "grid_x": 3, "grid_y": 3, "snap_result_types": ["route"], "snap_result_place_id": "ChIJsWF7Tsu9woARJJXXAXNqaxU"}, {"raw_location": {"lat": 34.10755321589056, "lng": -118.38655943181496}, "snapped_location": {"lat": 34.1071515, "lng": -118.3863195}, "grid_x": 4, "grid_y": 3, "snap_result_types": ["route"], "snap_result_place_id": "ChIJw6Tub4S-woARHmXSd5AO5x8"}, {"raw_location": {"lat": 34.10755321589056, "lng": -118.36225387625942}, "snapped_location": {"lat": 34.1075159, "lng": -118.3631673}, "grid_x": 5, "grid_y": 3, "snap_result_types": ["route"], "snap_result_place_id": "ChIJNxuDfO6-woARqpF389TbyQ4"}, {"raw_location": {"lat": 34.10755321589056, "lng": -118.33794832070386}, "snapped_location": {"lat": 34.1074419, "lng": -118.3374536}, "grid_x": 6, "grid_y": 3, "snap_result_types": ["route"], "snap_result_place_id": "ChIJJ7Nw9Ri_woARQK9Djpxpc1o"}, {"raw_location": {"lat": 34.10755321589056, "lng": -118.3136427651483}, "snapped_location": {"lat": 34.1076527, "lng": -118.3137427}, "grid_x": 7, "grid_y": 3, "snap_result_types": ["route"], "snap_result_place_id": "ChIJgd6wn0O_woAROMPLLUDyCM8"}, {"raw_location": {"lat": 34.10755321589056, "lng": -118.28933720959274}, "snapped_location": {"lat": 34.1076888, "lng": -118.2897482}, "grid_x": 8, "grid_y": 3, "snap_result_types": ["route"], "snap_result_place_id": "ChIJg0V5YqXAwoAR5ug5vi18NvI"}, {"raw_location": {"lat": 34.10755321589056, "lng": -118.26503165403719}, "snapped_location": {"lat": 34.1076097, "lng": -118.2650325}, "grid_x": 9, "grid_y": 3, "snap_result_types": ["route"], "snap_result_place_id": "ChIJM2jM7c3AwoAREM2P6sNo03s"}, {"raw_location": {"lat": 34.10755321589056, "lng": -118.24072609848163}, "snapped_location": {"lat": 34.1073663, "lng": -118.2405526}, "grid_x": 10, "grid_y": 3, "snap_result_types": ["route"], "snap_result_place_id": "ChIJzyDnfM3GwoAR9oH0v-3-K30"}, {"raw_location": {"lat": 34.10755321589056, "lng": -118.21642054292607}, "snapped_location": {"lat": 34.1074944, "lng": -118.2163691}, "grid_x": 11, "grid_y": 3, "snap_result_types": ["route"], "snap_result_place_id": "ChIJK3HuyK_GwoARpknmNEDTP4g"}, {"raw_location": {"lat": 34.10755321589056, "lng": -118.19211498737052}, "snapped_location": {"lat": 34.1074266, "lng": -118.1923214}, "grid_x": 12, "grid_y": 3, "snap_result_types": ["route"], "snap_result_place_id": "ChIJmafcwxDEwoARJDtAYV5jSU8"}, {"raw_location": {"lat": 34.10755321589056, "lng": -118.16780943181496}, "snapped_location": {"lat": 34.1066587, "lng": -118.1670472}, "grid_x": 13, "grid_y": 3, "snap_result_types": ["route"], "snap_result_place_id": "ChIJWx8Y813EwoARIppdwTyzWR4"}, {"raw_location": {"lat": 34.10755321589056, "lng": -118.14350387625942}, "snapped_location": {"lat": 34.1078272, "lng": -118.1437415}, "grid_x": 14, "grid_y": 3, "snap_result_types": ["route"], "snap_result_place_id": "ChIJ-eJNm-7EwoARWDdVfeKn9lE"}, {"raw_location": {"lat": 34.10755321589056, "lng": -118.11919832070386}, "snapped_location": {"lat": 34.107475, "lng": -118.1194259}, "grid_x": 15, "grid_y": 3, "snap_result_types": ["route"], "snap_result_place_id": "ChIJJTNzm9HEwoARVK5IIzD4FHE"}, {"raw_location": {"lat": 34.10755321589056, "lng": -118.0948927651483}, "snapped_location": {"lat": 34.1070765, "lng": -118.0935246}, "grid_x": 16, "grid_y": 3, "snap_result_types": ["route"], "snap_result_place_id": "ChIJ38643CDbwoARMtIXnJSL5sc"}, {"raw_location": {"lat": 34.10755321589056, "lng": -118.07058720959274}, "snapped_location": {"lat": 34.10811290000001, "lng": -118.070821}, "grid_x": 17, "grid_y": 3, "snap_result_types": ["route"], "snap_result_place_id": "ChIJ42HxhP7awoAR_BI6Q1I_NV4"}, {"raw_location": {"lat": 34.10755321589056, "lng": -118.04628165403719}, "snapped_location": {"lat": 34.1075517, "lng": -118.04639}, "grid_x": 18, "grid_y": 3, "snap_result_types": ["route"], "snap_result_place_id": "ChIJYY0jlkjawoARlOsSvCHO8rE"}, {"raw_location": {"lat": 34.08739982676279, "lng": -118.48378165403719}, "snapped_location": {"lat": 34.08999, "lng": -118.4847459}, "grid_x": 0, "grid_y": 4, "snap_result_types": ["route"], "snap_result_place_id": "ChIJ6xuhhCq9woARYpBgg3uDt3g"}, {"raw_location": {"lat": 34.08739982676279, "lng": -118.45947609848163}, "snapped_location": {"lat": 34.0899639, "lng": -118.4610897}, "grid_x": 1, "grid_y": 4, "snap_result_types": ["route"], "snap_result_place_id": "ChIJndZsOue8woARiBdabE5x0gQ"}, {"raw_location": {"lat": 34.08739982676279, "lng": -118.43517054292607}, "snapped_location": {"lat": 34.0869665, "lng": -118.4359237}, "grid_x": 2, "grid_y": 4, "snap_result_types": ["route"], "snap_result_place_id": "ChIJKzkTMFm8woARtCEmx6qqV0M"}, {"raw_location": {"lat": 34.08739982676279, "lng": -118.41086498737052}, "snapped_location": {"lat": 34.0878706, "lng": -118.4109804}, "grid_x": 3, "grid_y": 4, "snap_result_types": ["route"], "snap_result_place_id": "ChIJy0Z-BD68woARzo6c5SvKySk"}, {"raw_location": {"lat": 34.08739982676279, "lng": -118.38655943181496}, "snapped_location": {"lat": 34.0873153, "lng": -118.3864013}, "grid_x": 4, "grid_y": 4, "snap_result_types": ["route"], "snap_result_place_id": "ChIJkauXPaS-woARxHBi-n5ygtk"}, {"raw_location": {"lat": 34.08739982676279, "lng": -118.36225387625942}, "snapped_location": {"lat": 34.0871978, "lng": -118.3624073}, "grid_x": 5, "grid_y": 4, "snap_result_types": ["route"], "snap_result_place_id": "ChIJ16GRIc--woARcK78NufYfZA"}, {"raw_location": {"lat": 34.08739982676279, "lng": -118.33794832070386}, "snapped_location": {"lat": 34.0871005, "lng": -118.3376941}, "grid_x": 6, "grid_y": 4, "snap_result_types": ["route"], "snap_result_place_id": "ChIJdyzA4yy_woARBolYLW7tlW0"}, {"raw_location": {"lat": 34.08739982676279, "lng": -118.3136427651483}, "snapped_location": {"lat": 34.0873682, "lng": -118.3135686}, "grid_x": 7, "grid_y": 4, "snap_result_types": ["route"], "snap_result_place_id": "ChIJv8DaNrK4woARWo2XaMl5ChU"}, {"raw_location": {"lat": 34.08739982676279, "lng": -118.28933720959274}, "snapped_location": {"lat": 34.0871792, "lng": -118.2892677}, "grid_x": 8, "grid_y": 4, "snap_result_types": ["route"], "snap_result_place_id": "ChIJB3iFn1rHwoARBuVk-psjlV0"}, {"raw_location": {"lat": 34.08739982676279, "lng": -118.26503165403719}, "snapped_location": {"lat": 34.0867416, "lng": -118.2651337}, "grid_x": 9, "grid_y": 4, "snap_result_types": ["route"], "snap_result_place_id": "ChIJ3yeKyDzHwoARmryUiTjkI-M"}, {"raw_location": {"lat": 34.08739982676279, "lng": -118.24072609848163}, "snapped_location": {"lat": 34.0878528, "lng": -118.2411872}, "grid_x": 10, "grid_y": 4, "snap_result_types": ["route"], "snap_result_place_id": "ChIJN2ag4ufGwoAR8uIePTa27Nk"}, {"raw_location": {"lat": 34.08739982676279, "lng": -118.21642054292607}, "snapped_location": {"lat": 34.0874658, "lng": -118.2157671}, "grid_x": 11, "grid_y": 4, "snap_result_types": ["route"], "snap_result_place_id": "ChIJue8e9JrGwoARqCjs8QlJCP4"}, {"raw_location": {"lat": 34.08739982676279, "lng": -118.19211498737052}, "snapped_location": {"lat": 34.0870977, "lng": -118.1922131}, "grid_x": 12, "grid_y": 4, "snap_result_types": ["route"], "snap_result_place_id": "ChIJUx44ljHEwoARDnGjTkiVD6I"}, {"raw_location": {"lat": 34.08739982676279, "lng": -118.16780943181496}, "snapped_location": {"lat": 34.0873069, "lng": -118.1680758}, "grid_x": 13, "grid_y": 4, "snap_result_types": ["route"], "snap_result_place_id": "ChIJ1X4O11LEwoARtuwlrRfdsYM"}, {"raw_location": {"lat": 34.08739982676279, "lng": -118.14350387625942}, "snapped_location": {"lat": 34.0875584, "lng": -118.1430713}, "grid_x": 14, "grid_y": 4, "snap_result_types": ["route"], "snap_result_place_id": "ChIJowndixvFwoARovmxXlgMnI8"}, {"raw_location": {"lat": 34.08739982676279, "lng": -118.11919832070386}, "snapped_location": {"lat": 34.08715, "lng": -118.1197888}, "grid_x": 15, "grid_y": 4, "snap_result_types": ["route"], "snap_result_place_id": "ChIJL4CLvjHFwoAR3uhnBmP24JI"}, {"raw_location": {"lat": 34.08739982676279, "lng": -118.0948927651483}, "snapped_location": {"lat": 34.0871221, "lng": -118.0944696}, "grid_x": 16, "grid_y": 4, "snap_result_types": ["route"], "snap_result_place_id": "ChIJGzpxKsHawoARYAYN1-hU6g4"}, {"raw_location": {"lat": 34.08739982676279, "lng": -118.07058720959274}, "snapped_location": {"lat": 34.0875721, "lng": -118.070529}, "grid_x": 17, "grid_y": 4, "snap_result_types": ["route"], "snap_result_place_id": "ChIJ8ZZVm4vawoAR5nwA7F9ngxg"}, {"raw_location": {"lat": 34.08739982676279, "lng": -118.04628165403719}, "snapped_location": {"lat": 34.08778059999999, "lng": -118.0484763}, "grid_x": 18, "grid_y": 4, "snap_result_types": ["route"], "snap_result_place_id": "ChIJ8eEZE27awoARBJ9BNe_UwXs"}, {"raw_location": {"lat": 34.06724643763501, "lng": -118.48378165403719}, "snapped_location": {"lat": 34.0677655, "lng": -118.4839159}, "grid_x": 0, "grid_y": 5, "snap_result_types": ["route"], "snap_result_place_id": "ChIJHTRpDbW8woAReMXjUw0btNE"}, {"raw_location": {"lat": 34.06724643763501, "lng": -118.45947609848163}, "snapped_location": {"lat": 34.0679107, "lng": -118.4597058}, "grid_x": 1, "grid_y": 5, "snap_result_types": ["route"], "snap_result_place_id": "ChIJJaGW_Ja8woARmHUH_xSlLh0"}, {"raw_location": {"lat": 34.06724643763501, "lng": -118.43517054292607}, "snapped_location": {"lat": 34.0669473, "lng": -118.4355337}, "grid_x": 2, "grid_y": 5, "snap_result_types": ["route"], "snap_result_place_id": "ChIJ04NoPXy8woARruvGSc3MfwE"}, {"raw_location": {"lat": 34.06724643763501, "lng": -118.41086498737052}, "snapped_location": {"lat": 34.0671425, "lng": -118.4109522}, "grid_x": 3, "grid_y": 5, "snap_result_types": ["route"], "snap_result_place_id": "ChIJVfrx-PW7woARyK7A14lXfLo"}, {"raw_location": {"lat": 34.06724643763501, "lng": -118.38655943181496}, "snapped_location": {"lat": 34.0672345, "lng": -118.3866968}, "grid_x": 4, "grid_y": 5, "snap_result_types": ["route"], "snap_result_place_id": "ChIJY4eHTlG5woAR2gxUpNK8snA"}, {"raw_location": {"lat": 34.06724643763501, "lng": -118.36225387625942}, "snapped_location": {"lat": 34.0676087, "lng": -118.3632596}, "grid_x": 5, "grid_y": 5, "snap_result_types": ["route"], "snap_result_place_id": "ChIJBYOUGDq5woAReALm_V_0low"}, {"raw_location": {"lat": 34.06724643763501, "lng": -118.33794832070386}, "snapped_location": {"lat": 34.0669124, "lng": -118.3378424}, "grid_x": 6, "grid_y": 5, "snap_result_types": ["route"], "snap_result_place_id": "ChIJH71sr924woARwtmS24TDu2Q"}, {"raw_location": {"lat": 34.06724643763501, "lng": -118.3136427651483}, "snapped_location": {"lat": 34.0671474, "lng": -118.3134703}, "grid_x": 7, "grid_y": 5, "snap_result_types": ["route"], "snap_result_place_id": "ChIJ3YKRIpe4woARULQwmGZ3yIU"}, {"raw_location": {"lat": 34.06724643763501, "lng": -118.28933720959274}, "snapped_location": {"lat": 34.0671185, "lng": -118.2893191}, "grid_x": 8, "grid_y": 5, "snap_result_types": ["route"], "snap_result_place_id": "ChIJtyp1SmXHwoAR7rgmz6coI7Q"}, {"raw_location": {"lat": 34.06724643763501, "lng": -118.26503165403719}, "snapped_location": {"lat": 34.0674568, "lng": -118.2644704}, "grid_x": 9, "grid_y": 5, "snap_result_types": ["route"], "snap_result_place_id": "ChIJF8bHqQjHwoARagbou7rtGRc"}, {"raw_location": {"lat": 34.06724643763501, "lng": -118.24072609848163}, "snapped_location": {"lat": 34.06739719999999, "lng": -118.2406219}, "grid_x": 10, "grid_y": 5, "snap_result_types": ["route"], "snap_result_place_id": "ChIJFQ35IVjGwoARBoAmF2RdRy0"}, {"raw_location": {"lat": 34.06724643763501, "lng": -118.21642054292607}, "snapped_location": {"lat": 34.067186, "lng": -118.2164969}, "grid_x": 11, "grid_y": 5, "snap_result_types": ["route"], "snap_result_place_id": "ChIJo3j5OnvGwoARQNWlc1bWXmI"}, {"raw_location": {"lat": 34.06724643763501, "lng": -118.19211498737052}, "snapped_location": {"lat": 34.0678405, "lng": -118.1917833}, "grid_x": 12, "grid_y": 5, "snap_result_types": ["route"], "snap_result_place_id": "ChIJAwFd_MTFwoAR2OhxZ9lZJRw"}, {"raw_location": {"lat": 34.06724643763501, "lng": -118.16780943181496}, "snapped_location": {"lat": 34.0676682, "lng": -118.1680807}, "grid_x": 13, "grid_y": 5, "snap_result_types": ["route"], "snap_result_place_id": "ChIJBShl86LFwoAR5IwkTmPctqI"}, {"raw_location": {"lat": 34.06724643763501, "lng": -118.14350387625942}, "snapped_location": {"lat": 34.0674403, "lng": -118.143869}, "grid_x": 14, "grid_y": 5, "snap_result_types": ["route"], "snap_result_place_id": "ChIJLT3Ojm7FwoARigB1Y79j7Rk"}, {"raw_location": {"lat": 34.06724643763501, "lng": -118.11919832070386}, "snapped_location": {"lat": 34.0672249, "lng": -118.1188293}, "grid_x": 15, "grid_y": 5, "snap_result_types": ["route"], "snap_result_place_id": "ChIJ1aje8VHFwoARrso4LqyAQPI"}, {"raw_location": {"lat": 34.06724643763501, "lng": -118.0948927651483}, "snapped_location": {"lat": 34.0674022, "lng": -118.095042}, "grid_x": 16, "grid_y": 5, "snap_result_types": ["route"], "snap_result_place_id": "ChIJp6AHzKbawoARZtsCSCvsG1U"}, {"raw_location": {"lat": 34.06724643763501, "lng": -118.07058720959274}, "snapped_location": {"lat": 34.067198, "lng": -118.0707192}, "grid_x": 17, "grid_y": 5, "snap_result_types": ["route"], "snap_result_place_id": "ChIJ0zup137QwoARQF5lQ69AEZk"}, {"raw_location": {"lat": 34.06724643763501, "lng": -118.04628165403719}, "snapped_location": {"lat": 34.0670774, "lng": -118.0459469}, "grid_x": 18, "grid_y": 5, "snap_result_types": ["route"], "snap_result_place_id": "ChIJn4WduJnQwoAR9GGhLZLklRk"}, {"raw_location": {"lat": 34.04709304850724, "lng": -118.48378165403719}, "snapped_location": {"lat": 34.047225, "lng": -118.4837998}, "grid_x": 0, "grid_y": 6, "snap_result_types": ["route"], "snap_result_place_id": "ChIJqSSJC1W7woAR4LGmPhUrKZA"}, {"raw_location": {"lat": 34.04709304850724, "lng": -118.45947609848163}, "snapped_location": {"lat": 34.0469746, "lng": -118.459365}, "grid_x": 1, "grid_y": 6, "snap_result_types": ["route"], "snap_result_place_id": "ChIJFYQ2V2a7woARiAhf-8lXUxE"}, {"raw_location": {"lat": 34.04709304850724, "lng": -118.43517054292607}, "snapped_location": {"lat": 34.0471646, "lng": -118.4348932}, "grid_x": 2, "grid_y": 6, "snap_result_types": ["route"], "snap_result_place_id": "ChIJSeVEbJy7woARbFBMBwRwCT0"}, {"raw_location": {"lat": 34.04709304850724, "lng": -118.41086498737052}, "snapped_location": {"lat": 34.0471104, "lng": -118.4106247}, "grid_x": 3, "grid_y": 6, "snap_result_types": ["route"], "snap_result_place_id": "ChIJb8GqA-q7woARasOk2L4IfRI"}, {"raw_location": {"lat": 34.04709304850724, "lng": -118.38655943181496}, "snapped_location": {"lat": 34.0471218, "lng": -118.386668}, "grid_x": 4, "grid_y": 6, "snap_result_types": ["route"], "snap_result_place_id": "ChIJJXIwBGS5woARHDJSnWORtsw"}, {"raw_location": {"lat": 34.04709304850724, "lng": -118.36225387625942}, "snapped_location": {"lat": 34.0476603, "lng": -118.3622242}, "grid_x": 5, "grid_y": 6, "snap_result_types": ["route"], "snap_result_place_id": "ChIJ1RzlPQ65woARRMRbtsu1iuQ"}, {"raw_location": {"lat": 34.04709304850724, "lng": -118.33794832070386}, "snapped_location": {"lat": 34.0471527, "lng": -118.3378447}, "grid_x": 6, "grid_y": 6, "snap_result_types": ["route"], "snap_result_place_id": "ChIJ3-uiAfm4woARMocgNJOao7g"}, {"raw_location": {"lat": 34.04709304850724, "lng": -118.3136427651483}, "snapped_location": {"lat": 34.0471841, "lng": -118.313564}, "grid_x": 7, "grid_y": 6, "snap_result_types": ["route"], "snap_result_place_id": "ChIJP0QaD2O4woAR2hAliKSSsTU"}, {"raw_location": {"lat": 34.04709304850724, "lng": -118.28933720959274}, "snapped_location": {"lat": 34.0471457, "lng": -118.2892334}, "grid_x": 8, "grid_y": 6, "snap_result_types": ["route"], "snap_result_place_id": "ChIJlYIZaIXHwoARmEx96R69-3A"}, {"raw_location": {"lat": 34.04709304850724, "lng": -118.26503165403719}, "snapped_location": {"lat": 34.0471501, "lng": -118.2650294}, "grid_x": 9, "grid_y": 6, "snap_result_types": ["route"], "snap_result_place_id": "ChIJpwUe-LnHwoAR1D7mf04F_kQ"}, {"raw_location": {"lat": 34.04709304850724, "lng": -118.24072609848163}, "snapped_location": {"lat": 34.046868, "lng": -118.2411888}, "grid_x": 10, "grid_y": 6, "snap_result_types": ["route"], "snap_result_place_id": "ChIJwULc9DfGwoARTlPj22v88To"}, {"raw_location": {"lat": 34.04709304850724, "lng": -118.21642054292607}, "snapped_location": {"lat": 34.0472075, "lng": -118.2162451}, "grid_x": 11, "grid_y": 6, "snap_result_types": ["route"], "snap_result_place_id": "ChIJL-KWNw7GwoARruZFHF8fFlA"}, {"raw_location": {"lat": 34.04709304850724, "lng": -118.19211498737052}, "snapped_location": {"lat": 34.0471639, "lng": -118.1919357}, "grid_x": 12, "grid_y": 6, "snap_result_types": ["route"], "snap_result_place_id": "ChIJHzsa-vDFwoARJNQIrjjcF5Y"}, {"raw_location": {"lat": 34.04709304850724, "lng": -118.16780943181496}, "snapped_location": {"lat": 34.0473197, "lng": -118.1680078}, "grid_x": 13, "grid_y": 6, "snap_result_types": ["route"], "snap_result_place_id": "ChIJl7gKoYfFwoARHlSwBVZookY"}, {"raw_location": {"lat": 34.04709304850724, "lng": -118.14350387625942}, "snapped_location": {"lat": 34.0469694, "lng": -118.1438162}, "grid_x": 14, "grid_y": 6, "snap_result_types": ["route"], "snap_result_place_id": "ChIJAZbYLYnPwoARgonjVVJH0sI"}, {"raw_location": {"lat": 34.04709304850724, "lng": -118.11919832070386}, "snapped_location": {"lat": 34.0457679, "lng": -118.1188927}, "grid_x": 15, "grid_y": 6, "snap_result_types": ["route"], "snap_result_place_id": "ChIJoTz7j-TPwoARXlH3ZhqhmUk"}, {"raw_location": {"lat": 34.04709304850724, "lng": -118.0948927651483}, "snapped_location": {"lat": 34.0470658, "lng": -118.0948721}, "grid_x": 16, "grid_y": 6, "snap_result_types": ["route"], "snap_result_place_id": "ChIJg2vinhbQwoARNnPPkJjLdKI"}, {"raw_location": {"lat": 34.04709304850724, "lng": -118.07058720959274}, "snapped_location": {"lat": 34.0444146, "lng": -118.0716241}, "grid_x": 17, "grid_y": 6, "snap_result_types": ["route"], "snap_result_place_id": "ChIJy5aE1F3QwoAR1MWAiLqVNn0"}, {"raw_location": {"lat": 34.04709304850724, "lng": -118.04628165403719}, "snapped_location": {"lat": 34.0473776, "lng": -118.0461037}, "grid_x": 18, "grid_y": 6, "snap_result_types": ["route"], "snap_result_place_id": "ChIJwTRS5-jQwoARcM9gLzEQKZk"}, {"raw_location": {"lat": 34.02693965937947, "lng": -118.48378165403719}, "snapped_location": {"lat": 34.0270962, "lng": -118.4837116}, "grid_x": 0, "grid_y": 7, "snap_result_types": ["route"], "snap_result_place_id": "ChIJP4gqdTW7woARXp6yBKhXbaA"}, {"raw_location": {"lat": 34.02693965937947, "lng": -118.45947609848163}, "snapped_location": {"lat": 34.0269358, "lng": -118.4593972}, "grid_x": 1, "grid_y": 7, "snap_result_types": ["route"], "snap_result_place_id": "ChIJs4NJ_Ba7woARsHm8PvhJaXc"}, {"raw_location": {"lat": 34.02693965937947, "lng": -118.43517054292607}, "snapped_location": {"lat": 34.0268328, "lng": -118.4355557}, "grid_x": 2, "grid_y": 7, "snap_result_types": ["route"], "snap_result_place_id": "ChIJC2PiFqm7woARUvQfKIwAf2Q"}, {"raw_location": {"lat": 34.02693965937947, "lng": -118.41086498737052}, "snapped_location": {"lat": 34.0269804, "lng": -118.410888}, "grid_x": 3, "grid_y": 7, "snap_result_types": ["route"], "snap_result_place_id": "ChIJjQ3FW8u7woARunyd0vghy-s"}, {"raw_location": {"lat": 34.02693965937947, "lng": -118.38655943181496}, "snapped_location": {"lat": 34.0267567, "lng": -118.3865561}, "grid_x": 4, "grid_y": 7, "snap_result_types": ["route"], "snap_result_place_id": "ChIJwTgeBIS5woARlDkqHkuqwdY"}, {"raw_location": {"lat": 34.02693965937947, "lng": -118.36225387625942}, "snapped_location": {"lat": 34.0269043, "lng": -118.3623317}, "grid_x": 5, "grid_y": 7, "snap_result_types": ["route"], "snap_result_place_id": "ChIJ1elxQLu5woARfBL5sS4V7Ro"}, {"raw_location": {"lat": 34.02693965937947, "lng": -118.33794832070386}, "snapped_location": {"lat": 34.02683870000001, "lng": -118.3384151}, "grid_x": 6, "grid_y": 7, "snap_result_types": ["route"], "snap_result_place_id": "ChIJI67wDkm4woAR2HU61fDEyPM"}, {"raw_location": {"lat": 34.02693965937947, "lng": -118.3136427651483}, "snapped_location": {"lat": 34.0264847, "lng": -118.3129254}, "grid_x": 7, "grid_y": 7, "snap_result_types": ["route"], "snap_result_place_id": "ChIJFWbWQBK4woARhC2fr9dD6d4"}, {"raw_location": {"lat": 34.02693965937947, "lng": -118.28933720959274}, "snapped_location": {"lat": 34.0274331, "lng": -118.2895797}, "grid_x": 8, "grid_y": 7, "snap_result_types": ["route"], "snap_result_place_id": "ChIJFyuhRvDHwoAR9qyIL1LlWC8"}, {"raw_location": {"lat": 34.02693965937947, "lng": -118.26503165403719}, "snapped_location": {"lat": 34.0264566, "lng": -118.2652628}, "grid_x": 9, "grid_y": 7, "snap_result_types": ["route"], "snap_result_place_id": "ChIJodDX9dnHwoARkkVN6a-gL-I"}, {"raw_location": {"lat": 34.02693965937947, "lng": -118.24072609848163}, "snapped_location": {"lat": 34.0270309, "lng": -118.2411354}, "grid_x": 10, "grid_y": 7, "snap_result_types": ["route"], "snap_result_place_id": "ChIJJw6MrILIwoARarmcRUhiGsQ"}, {"raw_location": {"lat": 34.02693965937947, "lng": -118.21642054292607}, "snapped_location": {"lat": 34.0267951, "lng": -118.2164562}, "grid_x": 11, "grid_y": 7, "snap_result_types": ["route"], "snap_result_place_id": "ChIJfXyGba_IwoARyHsyDZaEkzM"}, {"raw_location": {"lat": 34.02693965937947, "lng": -118.19211498737052}, "snapped_location": {"lat": 34.0269719, "lng": -118.1923425}, "grid_x": 12, "grid_y": 7, "snap_result_types": ["route"], "snap_result_place_id": "ChIJUSSKCUXPwoARxCdY6Pt3jrY"}, {"raw_location": {"lat": 34.02693965937947, "lng": -118.16780943181496}, "snapped_location": {"lat": 34.0262231, "lng": -118.1679714}, "grid_x": 13, "grid_y": 7, "snap_result_types": ["route"], "snap_result_place_id": "ChIJUcfO2HLPwoARnKj8Q3AFhcs"}, {"raw_location": {"lat": 34.02693965937947, "lng": -118.14350387625942}, "snapped_location": {"lat": 34.0272072, "lng": -118.1435698}, "grid_x": 14, "grid_y": 7, "snap_result_types": ["route"], "snap_result_place_id": "ChIJYxKPaLzPwoARdoO9epBOnV8"}, {"raw_location": {"lat": 34.02693965937947, "lng": -118.11919832070386}, "snapped_location": {"lat": 34.0265143, "lng": -118.1188677}, "grid_x": 15, "grid_y": 7, "snap_result_types": ["route"], "snap_result_place_id": "ChIJsam-vNDPwoARSu0Oec7ViRU"}, {"raw_location": {"lat": 34.02693965937947, "lng": -118.0948927651483}, "snapped_location": {"lat": 34.0271224, "lng": -118.0957446}, "grid_x": 16, "grid_y": 7, "snap_result_types": ["route"], "snap_result_place_id": "ChIJJRrXjTPQwoARKDugTDA_ti0"}, {"raw_location": {"lat": 34.02693965937947, "lng": -118.07058720959274}, "snapped_location": {"lat": 34.0243633, "lng": -118.070609}, "grid_x": 17, "grid_y": 7, "snap_result_types": ["route"], "snap_result_place_id": "ChIJzTKi86vRwoARLoThRgVHjgM"}, {"raw_location": {"lat": 34.02693965937947, "lng": -118.04628165403719}, "snapped_location": {"lat": 34.0268666, "lng": -118.0458087}, "grid_x": 18, "grid_y": 7, "snap_result_types": ["route"], "snap_result_place_id": "ChIJQ0F5TBjRwoAR7A5Q4akdx2g"}, {"raw_location": {"lat": 34.0067862702517, "lng": -118.48378165403719}, "snapped_location": {"lat": 34.0068933, "lng": -118.4839742}, "grid_x": 0, "grid_y": 8, "snap_result_types": ["route"], "snap_result_place_id": "ChIJ31hpcdW6woARpmiJSetKwLU"}, {"raw_location": {"lat": 34.0067862702517, "lng": -118.45947609848163}, "snapped_location": {"lat": 34.0063229, "lng": -118.4590437}, "grid_x": 1, "grid_y": 8, "snap_result_types": ["route"], "snap_result_place_id": "ChIJDRDXXua6woAReFZNZmSLXgw"}, {"raw_location": {"lat": 34.0067862702517, "lng": -118.43517054292607}, "snapped_location": {"lat": 34.006939, "lng": -118.4356607}, "grid_x": 2, "grid_y": 8, "snap_result_types": ["route"], "snap_result_place_id": "ChIJZdnVC1m6woARUEfynxDEHPk"}, {"raw_location": {"lat": 34.0067862702517, "lng": -118.41086498737052}, "snapped_location": {"lat": 34.0066975, "lng": -118.4109676}, "grid_x": 3, "grid_y": 8, "snap_result_types": ["route"], "snap_result_place_id": "ChIJp_pFDD66woARUP62g10ZVFY"}, {"raw_location": {"lat": 34.0067862702517, "lng": -118.38655943181496}, "snapped_location": {"lat": 34.0065266, "lng": -118.3866625}, "grid_x": 4, "grid_y": 8, "snap_result_types": ["route"], "snap_result_place_id": "ChIJn7IUVvG5woARdECIdKKP6K0"}, {"raw_location": {"lat": 34.0067862702517, "lng": -118.36225387625942}, "snapped_location": {"lat": 34.0067645, "lng": -118.3620783}, "grid_x": 5, "grid_y": 8, "snap_result_types": ["route"], "snap_result_place_id": "ChIJwWXOONu5woAReMZFxwaFf2U"}, {"raw_location": {"lat": 34.0067862702517, "lng": -118.33794832070386}, "snapped_location": {"lat": 34.0066988, "lng": -118.3377556}, "grid_x": 6, "grid_y": 8, "snap_result_types": ["route"], "snap_result_place_id": "ChIJeUWtHCm4woARRPCaVYmncqY"}, {"raw_location": {"lat": 34.0067862702517, "lng": -118.3136427651483}, "snapped_location": {"lat": 34.0068214, "lng": -118.313842}, "grid_x": 7, "grid_y": 8, "snap_result_types": ["route"], "snap_result_place_id": "ChIJr-ryAPe3woAR8Mq6cKLmEMY"}, {"raw_location": {"lat": 34.0067862702517, "lng": -118.28933720959274}, "snapped_location": {"lat": 34.0064235, "lng": -118.288717}, "grid_x": 8, "grid_y": 8, "snap_result_types": ["route"], "snap_result_place_id": "ChIJs_SFRAXIwoARKjEsexCauGk"}, {"raw_location": {"lat": 34.0067862702517, "lng": -118.26503165403719}, "snapped_location": {"lat": 34.00687509999999, "lng": -118.2652639}, "grid_x": 9, "grid_y": 8, "snap_result_types": ["route"], "snap_result_place_id": "ChIJJw_1RG_IwoARZDRbB9oV1sg"}, {"raw_location": {"lat": 34.0067862702517, "lng": -118.24072609848163}, "snapped_location": {"lat": 34.0070257, "lng": -118.2408362}, "grid_x": 10, "grid_y": 8, "snap_result_types": ["route"], "snap_result_place_id": "ChIJY3wPUu3IwoARCvJcyvLCwKI"}, {"raw_location": {"lat": 34.0067862702517, "lng": -118.21642054292607}, "snapped_location": {"lat": 34.0055354, "lng": -118.2164077}, "grid_x": 11, "grid_y": 8, "snap_result_types": ["route"], "snap_result_place_id": "ChIJL7TPd8_IwoARZvrLj_kKMg0"}, {"raw_location": {"lat": 34.0067862702517, "lng": -118.19211498737052}, "snapped_location": {"lat": 34.006329, "lng": -118.1902416}, "grid_x": 12, "grid_y": 8, "snap_result_types": ["route"], "snap_result_place_id": "ChIJU_FCDSTPwoARygpL0vrbqkI"}, {"raw_location": {"lat": 34.0067862702517, "lng": -118.16780943181496}, "snapped_location": {"lat": 34.007152, "lng": -118.1683067}, "grid_x": 13, "grid_y": 8, "snap_result_types": ["route"], "snap_result_place_id": "ChIJjzjD_QLPwoARuj2VD-qb6yA"}, {"raw_location": {"lat": 34.0067862702517, "lng": -118.14350387625942}, "snapped_location": {"lat": 34.0064157, "lng": -118.1437612}, "grid_x": 14, "grid_y": 8, "snap_result_types": ["route"], "snap_result_place_id": "ChIJj1jaJEzOwoARBA8dxZK5qPo"}, {"raw_location": {"lat": 34.0067862702517, "lng": -118.11919832070386}, "snapped_location": {"lat": 34.0067195, "lng": -118.1181729}, "grid_x": 15, "grid_y": 8, "snap_result_types": ["route"], "snap_result_place_id": "ChIJWY_M_yXOwoARfmTNpOJZDbk"}, {"raw_location": {"lat": 34.0067862702517, "lng": -118.0948927651483}, "snapped_location": {"lat": 34.0070008, "lng": -118.0945231}, "grid_x": 16, "grid_y": 8, "snap_result_types": ["route"], "snap_result_place_id": "ChIJX8l3V8HRwoARIthHbfJisnY"}, {"raw_location": {"lat": 34.0067862702517, "lng": -118.07058720959274}, "snapped_location": {"lat": 34.0069469, "lng": -118.0709804}, "grid_x": 17, "grid_y": 8, "snap_result_types": ["route"], "snap_result_place_id": "ChIJGQFoNJ_RwoARTqu-wzNoKg4"}, {"raw_location": {"lat": 34.0067862702517, "lng": -118.04628165403719}, "snapped_location": {"lat": 34.0068029, "lng": -118.0462166}, "grid_x": 18, "grid_y": 8, "snap_result_types": ["route"], "snap_result_place_id": "ChIJ7c4UHmnRwoARSHr9aFF8MAQ"}, {"raw_location": {"lat": 33.98663288112393, "lng": -118.48378165403719}, "snapped_location": {"lat": 33.990932, "lng": -118.4772148}, "grid_x": 0, "grid_y": 9, "snap_result_types": ["route"], "snap_result_place_id": "ChIJreIfTsi6woAR7i_inbmAUlM"}, {"raw_location": {"lat": 33.98663288112393, "lng": -118.45947609848163}, "snapped_location": {"lat": 33.9868914, "lng": -118.4595602}, "grid_x": 1, "grid_y": 9, "snap_result_types": ["route"], "snap_result_place_id": "ChIJ-Tf48pa6woARZBH98-y7s3k"}, {"raw_location": {"lat": 33.98663288112393, "lng": -118.43517054292607}, "snapped_location": {"lat": 33.9868916, "lng": -118.4356314}, "grid_x": 2, "grid_y": 9, "snap_result_types": ["route"], "snap_result_place_id": "ChIJTxaU9Hy6woARrOCFqkzKbhg"}, {"raw_location": {"lat": 33.98663288112393, "lng": -118.41086498737052}, "snapped_location": {"lat": 33.9863038, "lng": -118.4105336}, "grid_x": 3, "grid_y": 9, "snap_result_types": ["route"], "snap_result_place_id": "ChIJ0SsYHgq6woARJgMdfZNhHMg"}, {"raw_location": {"lat": 33.98663288112393, "lng": -118.38655943181496}, "snapped_location": {"lat": 33.9867501, "lng": -118.3868006}, "grid_x": 4, "grid_y": 9, "snap_result_types": ["route"], "snap_result_place_id": "ChIJFwYZpla3woAR0C4D5NV9Ocw"}, {"raw_location": {"lat": 33.98663288112393, "lng": -118.36225387625942}, "snapped_location": {"lat": 33.9854093, "lng": -118.3617116}, "grid_x": 5, "grid_y": 9, "snap_result_types": ["route"], "snap_result_place_id": "ChIJ8WvAEG-3woAREIwc3BnFkLA"}, {"raw_location": {"lat": 33.98663288112393, "lng": -118.33794832070386}, "snapped_location": {"lat": 33.9867249, "lng": -118.3378025}, "grid_x": 6, "grid_y": 9, "snap_result_types": ["route"], "snap_result_place_id": "ChIJOzdiC5m3woARuqa123sMr_o"}, {"raw_location": {"lat": 33.98663288112393, "lng": -118.3136427651483}, "snapped_location": {"lat": 33.9866113, "lng": -118.3142357}, "grid_x": 7, "grid_y": 9, "snap_result_types": ["route"], "snap_result_place_id": "ChIJ35RtUcK3woARDCUVAGtxhhE"}, {"raw_location": {"lat": 33.98663288112393, "lng": -118.28933720959274}, "snapped_location": {"lat": 33.9866364, "lng": -118.2892682}, "grid_x": 8, "grid_y": 9, "snap_result_types": ["route"], "snap_result_place_id": "ChIJaTzQFyXIwoARtuNJe_x8MvA"}, {"raw_location": {"lat": 33.98663288112393, "lng": -118.26503165403719}, "snapped_location": {"lat": 33.9867062, "lng": -118.2652049}, "grid_x": 9, "grid_y": 9, "snap_result_types": ["route"], "snap_result_place_id": "ChIJvRykF07IwoARJOl-T-v6_WM"}, {"raw_location": {"lat": 33.98663288112393, "lng": -118.24072609848163}, "snapped_location": {"lat": 33.9868531, "lng": -118.2405556}, "grid_x": 10, "grid_y": 9, "snap_result_types": ["route"], "snap_result_place_id": "ChIJKy2RqeLIwoARjtRM-dQWvGY"}, {"raw_location": {"lat": 33.98663288112393, "lng": -118.21642054292607}, "snapped_location": {"lat": 33.9866787, "lng": -118.2164737}, "grid_x": 11, "grid_y": 9, "snap_result_types": ["route"], "snap_result_place_id": "ChIJedDuRC_JwoAR2F9_wgfzTVk"}, {"raw_location": {"lat": 33.98663288112393, "lng": -118.19211498737052}, "snapped_location": {"lat": 33.9863428, "lng": -118.1925013}, "grid_x": 12, "grid_y": 9, "snap_result_types": ["route"], "snap_result_place_id": "ChIJM7WtDcXOwoARMtOO1VktQfA"}, {"raw_location": {"lat": 33.98663288112393, "lng": -118.16780943181496}, "snapped_location": {"lat": 33.9864572, "lng": -118.1678425}, "grid_x": 13, "grid_y": 9, "snap_result_types": ["route"], "snap_result_place_id": "ChIJwXKh_vLOwoARqgsxzhg_KvU"}, {"raw_location": {"lat": 33.98663288112393, "lng": -118.14350387625942}, "snapped_location": {"lat": 33.9868445, "lng": -118.1443159}, "grid_x": 14, "grid_y": 9, "snap_result_types": ["route"], "snap_result_place_id": "ChIJNQc9HWnOwoARYi5yblpPRWs"}, {"raw_location": {"lat": 33.98663288112393, "lng": -118.11919832070386}, "snapped_location": {"lat": 33.9865962, "lng": -118.1185904}, "grid_x": 15, "grid_y": 9, "snap_result_types": ["route"], "snap_result_place_id": "ChIJ0cSNsgTOwoARtryBOnWFlUI"}, {"raw_location": {"lat": 33.98663288112393, "lng": -118.0948927651483}, "snapped_location": {"lat": 33.98640779999999, "lng": -118.0947022}, "grid_x": 16, "grid_y": 9, "snap_result_types": ["route"], "snap_result_place_id": "ChIJOb_CpvbRwoARIjsl9AjwPIk"}, {"raw_location": {"lat": 33.98663288112393, "lng": -118.07058720959274}, "snapped_location": {"lat": 33.9863531, "lng": -118.0704519}, "grid_x": 17, "grid_y": 9, "snap_result_types": ["route"], "snap_result_place_id": "ChIJ6YmTPCrSwoARLgUyPMMGnI4"}, {"raw_location": {"lat": 33.98663288112393, "lng": -118.04628165403719}, "snapped_location": {"lat": 33.9867905, "lng": -118.0460221}, "grid_x": 18, "grid_y": 9, "snap_result_types": ["route"], "snap_result_place_id": "ChIJNS5IWdzTwoARMLCKI7MScDg"}, {"raw_location": {"lat": 33.96647949199616, "lng": -118.48378165403719}, "snapped_location": {"lat": 33.9778183, "lng": -118.4690145}, "grid_x": 0, "grid_y": 10, "snap_result_types": ["route"], "snap_result_place_id": "ChIJKTKYeKS6woARJENug8UlXSk"}, {"raw_location": {"lat": 33.96647949199616, "lng": -118.45947609848163}, "snapped_location": {"lat": 33.9673238, "lng": -118.457258}, "grid_x": 1, "grid_y": 10, "snap_result_types": ["route"], "snap_result_place_id": "ChIJWZDR4XOwwoARUIASr47CKkY"}, {"raw_location": {"lat": 33.96647949199616, "lng": -118.43517054292607}, "snapped_location": {"lat": 33.9645325, "lng": -118.4354114}, "grid_x": 2, "grid_y": 10, "snap_result_types": ["route"], "snap_result_place_id": "ChIJceGEaYmwwoARHN0WlGu5Lnw"}, {"raw_location": {"lat": 33.96647949199616, "lng": -118.41086498737052}, "snapped_location": {"lat": 33.9651179, "lng": -118.4101318}, "grid_x": 3, "grid_y": 10, "snap_result_types": ["route"], "snap_result_place_id": "ChIJDcgMq7iwwoARhISJOrld4eo"}, {"raw_location": {"lat": 33.96647949199616, "lng": -118.38655943181496}, "snapped_location": {"lat": 33.9663803, "lng": -118.3865717}, "grid_x": 4, "grid_y": 10, "snap_result_types": ["route"], "snap_result_place_id": "ChIJE-R5pTa3woARIoj5bpFpqg0"}, {"raw_location": {"lat": 33.96647949199616, "lng": -118.36225387625942}, "snapped_location": {"lat": 33.9661774, "lng": -118.3622829}, "grid_x": 5, "grid_y": 10, "snap_result_types": ["route"], "snap_result_place_id": "ChIJrR3Rchq3woARJhDLVyBRs7g"}, {"raw_location": {"lat": 33.96647949199616, "lng": -118.33794832070386}, "snapped_location": {"lat": 33.9662568, "lng": -118.3384331}, "grid_x": 6, "grid_y": 10, "snap_result_types": ["route"], "snap_result_place_id": "ChIJUVrtOKy3woARnpcGzjuTciY"}, {"raw_location": {"lat": 33.96647949199616, "lng": -118.3136427651483}, "snapped_location": {"lat": 33.96639529999999, "lng": -118.3144882}, "grid_x": 7, "grid_y": 10, "snap_result_types": ["route"], "snap_result_place_id": "ChIJDdpMGzO2woARiJsAIolBk38"}, {"raw_location": {"lat": 33.96647949199616, "lng": -118.28933720959274}, "snapped_location": {"lat": 33.9667112, "lng": -118.2893133}, "grid_x": 8, "grid_y": 10, "snap_result_types": ["route"], "snap_result_place_id": "ChIJm5BeStDJwoARXoRcPRGUUsk"}, {"raw_location": {"lat": 33.96647949199616, "lng": -118.26503165403719}, "snapped_location": {"lat": 33.96648690000001, "lng": -118.2649067}, "grid_x": 9, "grid_y": 10, "snap_result_types": ["route"], "snap_result_place_id": "ChIJhXq1SbvJwoARCmmN08QElaE"}, {"raw_location": {"lat": 33.96647949199616, "lng": -118.24072609848163}, "snapped_location": {"lat": 33.9665572, "lng": -118.241059}, "grid_x": 10, "grid_y": 10, "snap_result_types": ["route"], "snap_result_place_id": "ChIJs2EfWA3JwoARXle-Hdbo-cE"}, {"raw_location": {"lat": 33.96647949199616, "lng": -118.21642054292607}, "snapped_location": {"lat": 33.9666904, "lng": -118.2172039}, "grid_x": 11, "grid_y": 10, "snap_result_types": ["route"], "snap_result_place_id": "ChIJT4C6307JwoARGsk2TKbX6uI"}, {"raw_location": {"lat": 33.96647949199616, "lng": -118.19211498737052}, "snapped_location": {"lat": 33.96614539999999, "lng": -118.1921084}, "grid_x": 12, "grid_y": 10, "snap_result_types": ["route"], "snap_result_place_id": "ChIJkW45EKXOwoARKOSaSl-Ed6s"}, {"raw_location": {"lat": 33.96647949199616, "lng": -118.16780943181496}, "snapped_location": {"lat": 33.9663246, "lng": -118.168148}, "grid_x": 13, "grid_y": 10, "snap_result_types": ["route"], "snap_result_place_id": "ChIJKadnCIPOwoARlvfcRPyEwMw"}, {"raw_location": {"lat": 33.96647949199616, "lng": -118.14350387625942}, "snapped_location": {"lat": 33.9656682, "lng": -118.1443969}, "grid_x": 14, "grid_y": 10, "snap_result_types": ["route"], "snap_result_place_id": "ChIJe9VBddnNwoAR7AOLRK3uBS0"}, {"raw_location": {"lat": 33.96647949199616, "lng": -118.11919832070386}, "snapped_location": {"lat": 33.9662948, "lng": -118.1192383}, "grid_x": 15, "grid_y": 10, "snap_result_types": ["route"], "snap_result_place_id": "ChIJ92ohEvrNwoARJGJE5zXIUTk"}, {"raw_location": {"lat": 33.96647949199616, "lng": -118.0948927651483}, "snapped_location": {"lat": 33.9667232, "lng": -118.0945439}, "grid_x": 16, "grid_y": 10, "snap_result_types": ["route"], "snap_result_place_id": "ChIJve0GqxbSwoARHr8wzFgn9EI"}, {"raw_location": {"lat": 33.96647949199616, "lng": -118.07058720959274}, "snapped_location": {"lat": 33.9662634, "lng": -118.0698671}, "grid_x": 17, "grid_y": 10, "snap_result_types": ["route"], "snap_result_place_id": "ChIJj9BYQkrSwoARfmLuOV0bgpo"}, {"raw_location": {"lat": 33.96647949199616, "lng": -118.04628165403719}, "snapped_location": {"lat": 33.9662006, "lng": -118.0454565}, "grid_x": 18, "grid_y": 10, "snap_result_types": ["route"], "snap_result_place_id": "ChIJx66IULzTwoARcC8exUCiLlE"}, {"raw_location": {"lat": 33.94632610286839, "lng": -118.48378165403719}, "snapped_location": {"lat": 33.94632610286839, "lng": -118.48378165403719}, "grid_x": 0, "grid_y": 11, "snap_result_types": null, "snap_result_place_id": null}, {"raw_location": {"lat": 33.94632610286839, "lng": -118.45947609848163}, "snapped_location": {"lat": 33.9533698, "lng": -118.4482712}, "grid_x": 1, "grid_y": 11, "snap_result_types": ["route"], "snap_result_place_id": "ChIJu6ompl2wwoARoOcmXXxCoVw"}, {"raw_location": {"lat": 33.94632610286839, "lng": -118.43517054292607}, "snapped_location": {"lat": 33.9459518, "lng": -118.4362463}, "grid_x": 2, "grid_y": 11, "snap_result_types": ["route"], "snap_result_place_id": "ChIJWQXjrvmwwoARVjCGHdIDo0M"}, {"raw_location": {"lat": 33.94632610286839, "lng": -118.41086498737052}, "snapped_location": {"lat": 33.9453, "lng": -118.41157}, "grid_x": 3, "grid_y": 11, "snap_result_types": ["street_address"], "snap_result_place_id": "ChIJRWhVP9-wwoAR0QcCnDuHHbU"}, {"raw_location": {"lat": 33.94632610286839, "lng": -118.38655943181496}, "snapped_location": {"lat": 33.9465095, "lng": -118.3865013}, "grid_x": 4, "grid_y": 11, "snap_result_types": ["route"], "snap_result_place_id": "ChIJY6GEota2woARHC4Fmqcu8Ng"}, {"raw_location": {"lat": 33.94632610286839, "lng": -118.36225387625942}, "snapped_location": {"lat": 33.9463842, "lng": -118.3641624}, "grid_x": 5, "grid_y": 11, "snap_result_types": ["route"], "snap_result_place_id": "ChIJj_W-COa2woARPKiUf_Mec58"}, {"raw_location": {"lat": 33.94632610286839, "lng": -118.33794832070386}, "snapped_location": {"lat": 33.9458426, "lng": -118.338256}, "grid_x": 6, "grid_y": 11, "snap_result_types": ["route"], "snap_result_place_id": "ChIJYzuvZVy2woARLNCSd3qrQng"}, {"raw_location": {"lat": 33.94632610286839, "lng": -118.3136427651483}, "snapped_location": {"lat": 33.9463856, "lng": -118.3152209}, "grid_x": 7, "grid_y": 11, "snap_result_types": ["route"], "snap_result_place_id": "ChIJr2lCORa2woAR5u9rj3MK-Q4"}, {"raw_location": {"lat": 33.94632610286839, "lng": -118.28933720959274}, "snapped_location": {"lat": 33.9463534, "lng": -118.2884495}, "grid_x": 8, "grid_y": 11, "snap_result_types": ["route"], "snap_result_place_id": "ChIJYUnneeXJwoAR1E0jPHNLYjQ"}, {"raw_location": {"lat": 33.94632610286839, "lng": -118.26503165403719}, "snapped_location": {"lat": 33.9462834, "lng": -118.2651671}, "grid_x": 9, "grid_y": 11, "snap_result_types": ["route"], "snap_result_place_id": "ChIJS3i6aI_JwoARODr9FnLyBQY"}, {"raw_location": {"lat": 33.94632610286839, "lng": -118.24072609848163}, "snapped_location": {"lat": 33.9472094, "lng": -118.240788}, "grid_x": 10, "grid_y": 11, "snap_result_types": ["route"], "snap_result_place_id": "ChIJE3KAymLJwoARrB8sLe1iQm8"}, {"raw_location": {"lat": 33.94632610286839, "lng": -118.21642054292607}, "snapped_location": {"lat": 33.9461275, "lng": -118.2164093}, "grid_x": 11, "grid_y": 11, "snap_result_types": ["route"], "snap_result_place_id": "ChIJhRbtXPvLwoAR0mq5xsjEXtk"}, {"raw_location": {"lat": 33.94632610286839, "lng": -118.19211498737052}, "snapped_location": {"lat": 33.9460963, "lng": -118.1919936}, "grid_x": 12, "grid_y": 11, "snap_result_types": ["route"], "snap_result_place_id": "ChIJ73krXRDMwoARNPMHug-vyYU"}, {"raw_location": {"lat": 33.94632610286839, "lng": -118.16780943181496}, "snapped_location": {"lat": 33.9463924, "lng": -118.165837}, "grid_x": 13, "grid_y": 11, "snap_result_types": ["route"], "snap_result_place_id": "ChIJBU1diDbMwoARAhh6CK1HC6I"}, {"raw_location": {"lat": 33.94632610286839, "lng": -118.14350387625942}, "snapped_location": {"lat": 33.9465892, "lng": -118.1430694}, "grid_x": 14, "grid_y": 11, "snap_result_types": ["route"], "snap_result_place_id": "ChIJa2tTH7nNwoAR-jD31ESFh1Y"}, {"raw_location": {"lat": 33.94632610286839, "lng": -118.11919832070386}, "snapped_location": {"lat": 33.9453171, "lng": -118.1199532}, "grid_x": 15, "grid_y": 11, "snap_result_types": ["route"], "snap_result_place_id": "ChIJXQoqZI_NwoARFvCjzvT8M6k"}, {"raw_location": {"lat": 33.94632610286839, "lng": -118.0948927651483}, "snapped_location": {"lat": 33.9465316, "lng": -118.0950188}, "grid_x": 16, "grid_y": 11, "snap_result_types": ["route"], "snap_result_place_id": "ChIJ3WK_HGTSwoAR5ivB0P9OOSQ"}, {"raw_location": {"lat": 33.94632610286839, "lng": -118.07058720959274}, "snapped_location": {"lat": 33.9469033, "lng": -118.0710856}, "grid_x": 17, "grid_y": 11, "snap_result_types": ["route"], "snap_result_place_id": "ChIJs6bs_lXSwoARtHfNoSstOBk"}, {"raw_location": {"lat": 33.94632610286839, "lng": -118.04628165403719}, "snapped_location": {"lat": 33.9462664, "lng": -118.0464405}, "grid_x": 18, "grid_y": 11, "snap_result_types": ["route"], "snap_result_place_id": "ChIJ66OHPwzTwoARCDsjJTWUqTY"}, {"raw_location": {"lat": 33.92617271374062, "lng": -118.48378165403719}, "snapped_location": {"lat": 33.92617271374062, "lng": -118.48378165403719}, "grid_x": 0, "grid_y": 12, "snap_result_types": null, "snap_result_place_id": null}, {"raw_location": {"lat": 33.92617271374062, "lng": -118.45947609848163}, "snapped_location": {"lat": 33.92617271374062, "lng": -118.45947609848163}, "grid_x": 1, "grid_y": 12, "snap_result_types": null, "snap_result_place_id": null}, {"raw_location": {"lat": 33.92617271374062, "lng": -118.43517054292607}, "snapped_location": {"lat": 33.9262208, "lng": -118.4339057}, "grid_x": 2, "grid_y": 12, "snap_result_types": ["route"], "snap_result_place_id": "ChIJYVRk0gixwoARzJNlfkMenW0"}, {"raw_location": {"lat": 33.92617271374062, "lng": -118.41086498737052}, "snapped_location": {"lat": 33.9259894, "lng": -118.4105918}, "grid_x": 3, "grid_y": 12, "snap_result_types": ["route"], "snap_result_place_id": "ChIJQfGxLD-xwoARqP5awpll8lo"}, {"raw_location": {"lat": 33.92617271374062, "lng": -118.38655943181496}, "snapped_location": {"lat": 33.9260952, "lng": -118.3859854}, "grid_x": 4, "grid_y": 12, "snap_result_types": ["route"], "snap_result_place_id": "ChIJpUOBvra2woARNjIrq9bcPVE"}, {"raw_location": {"lat": 33.92617271374062, "lng": -118.36225387625942}, "snapped_location": {"lat": 33.9263938, "lng": -118.3635013}, "grid_x": 5, "grid_y": 12, "snap_result_types": ["route"], "snap_result_place_id": "ChIJzwJPtJC2woARDLRXC3gKobM"}, {"raw_location": {"lat": 33.92617271374062, "lng": -118.33794832070386}, "snapped_location": {"lat": 33.9262203, "lng": -118.3381292}, "grid_x": 6, "grid_y": 12, "snap_result_types": ["route"], "snap_result_place_id": "ChIJud0yenm2woARZuU_c7Bn1yQ"}, {"raw_location": {"lat": 33.92617271374062, "lng": -118.3136427651483}, "snapped_location": {"lat": 33.9260557, "lng": -118.3138511}, "grid_x": 7, "grid_y": 12, "snap_result_types": ["route"], "snap_result_place_id": "ChIJ1SHi9OK1woARmsyOrTkva6U"}, {"raw_location": {"lat": 33.92617271374062, "lng": -118.28933720959274}, "snapped_location": {"lat": 33.9250996, "lng": -118.2891697}, "grid_x": 8, "grid_y": 12, "snap_result_types": ["route"], "snap_result_place_id": "ChIJH9eBPQXKwoAREjGVvfO6p2o"}, {"raw_location": {"lat": 33.92617271374062, "lng": -118.26503165403719}, "snapped_location": {"lat": 33.9261325, "lng": -118.2652065}, "grid_x": 9, "grid_y": 12, "snap_result_types": ["route"], "snap_result_place_id": "ChIJnb9DbjrKwoARStaWsdjxn_U"}, {"raw_location": {"lat": 33.92617271374062, "lng": -118.24072609848163}, "snapped_location": {"lat": 33.926097, "lng": -118.2407441}, "grid_x": 10, "grid_y": 12, "snap_result_types": ["route"], "snap_result_place_id": "ChIJG-9_2MfLwoARfMTqLksKrF0"}, {"raw_location": {"lat": 33.92617271374062, "lng": -118.21642054292607}, "snapped_location": {"lat": 33.9260786, "lng": -118.2166856}, "grid_x": 11, "grid_y": 12, "snap_result_types": ["route"], "snap_result_place_id": "ChIJ5btf4o3LwoARAF3owd2lpM0"}, {"raw_location": {"lat": 33.92617271374062, "lng": -118.19211498737052}, "snapped_location": {"lat": 33.9259417, "lng": -118.1923623}, "grid_x": 12, "grid_y": 12, "snap_result_types": ["route"], "snap_result_place_id": "ChIJp9ABbGXMwoARchthjlgTKuA"}, {"raw_location": {"lat": 33.92617271374062, "lng": -118.16780943181496}, "snapped_location": {"lat": 33.9261943, "lng": -118.1676625}, "grid_x": 13, "grid_y": 12, "snap_result_types": ["route"], "snap_result_place_id": "ChIJg91j3lbMwoAREL-gGUUVk68"}, {"raw_location": {"lat": 33.92617271374062, "lng": -118.14350387625942}, "snapped_location": {"lat": 33.9260751, "lng": -118.1432387}, "grid_x": 14, "grid_y": 12, "snap_result_types": ["route"], "snap_result_place_id": "ChIJ5VEZoAnNwoARCNq53vKY9Qo"}, {"raw_location": {"lat": 33.92617271374062, "lng": -118.11919832070386}, "snapped_location": {"lat": 33.9263815, "lng": -118.1198301}, "grid_x": 15, "grid_y": 12, "snap_result_types": ["route"], "snap_result_place_id": "ChIJJ0e6DXvNwoAREhZDT2nL-OQ"}, {"raw_location": {"lat": 33.92617271374062, "lng": -118.0948927651483}, "snapped_location": {"lat": 33.9259879, "lng": -118.0947754}, "grid_x": 16, "grid_y": 12, "snap_result_types": ["route"], "snap_result_place_id": "ChIJqxuTV5HSwoARvH67roOlkWY"}, {"raw_location": {"lat": 33.92617271374062, "lng": -118.07058720959274}, "snapped_location": {"lat": 33.9261844, "lng": -118.0707247}, "grid_x": 17, "grid_y": 12, "snap_result_types": ["route"], "snap_result_place_id": "ChIJS_bhqeDSwoARJhs6yfgSjHQ"}, {"raw_location": {"lat": 33.92617271374062, "lng": -118.04628165403719}, "snapped_location": {"lat": 33.9260498, "lng": -118.046444}, "grid_x": 18, "grid_y": 12, "snap_result_types": ["route"], "snap_result_place_id": "ChIJdZepQDnTwoARJFo31ePTnAA"}, {"raw_location": {"lat": 33.90601932461285, "lng": -118.48378165403719}, "snapped_location": {"lat": 33.90601932461285, "lng": -118.48378165403719}, "grid_x": 0, "grid_y": 13, "snap_result_types": null, "snap_result_place_id": null}, {"raw_location": {"lat": 33.90601932461285, "lng": -118.45947609848163}, "snapped_location": {"lat": 33.90601932461285, "lng": -118.45947609848163}, "grid_x": 1, "grid_y": 13, "snap_result_types": null, "snap_result_place_id": null}, {"raw_location": {"lat": 33.90601932461285, "lng": -118.43517054292607}, "snapped_location": {"lat": 33.9132875, "lng": -118.425962}, "grid_x": 2, "grid_y": 13, "snap_result_types": ["route"], "snap_result_place_id": "ChIJFVWNbW6xwoARAFsfQOc0Qf8"}, {"raw_location": {"lat": 33.90601932461285, "lng": -118.41086498737052}, "snapped_location": {"lat": 33.9062325, "lng": -118.4114635}, "grid_x": 3, "grid_y": 13, "snap_result_types": ["route"], "snap_result_place_id": "ChIJ84oE8F6xwoARSq8hAdQaZK0"}, {"raw_location": {"lat": 33.90601932461285, "lng": -118.38655943181496}, "snapped_location": {"lat": 33.90533, "lng": -118.3867439}, "grid_x": 4, "grid_y": 13, "snap_result_types": ["route"], "snap_result_place_id": "ChIJLzC14AO0woAR4hHvS9GlAEU"}, {"raw_location": {"lat": 33.90601932461285, "lng": -118.36225387625942}, "snapped_location": {"lat": 33.9060304, "lng": -118.3630409}, "grid_x": 5, "grid_y": 13, "snap_result_types": ["route"], "snap_result_place_id": "ChIJnUFDvCS0woAR_I8zbkZlkw4"}, {"raw_location": {"lat": 33.90601932461285, "lng": -118.33794832070386}, "snapped_location": {"lat": 33.9055485, "lng": -118.3384392}, "grid_x": 6, "grid_y": 13, "snap_result_types": ["route"], "snap_result_place_id": "ChIJ28duMcm1woARojwWGQRrO0w"}, {"raw_location": {"lat": 33.90601932461285, "lng": -118.3136427651483}, "snapped_location": {"lat": 33.906207, "lng": -118.3134606}, "grid_x": 7, "grid_y": 13, "snap_result_types": ["route"], "snap_result_place_id": "ChIJm2cD25K1woARgtYarx-EUGM"}, {"raw_location": {"lat": 33.90601932461285, "lng": -118.28933720959274}, "snapped_location": {"lat": 33.9059576, "lng": -118.2895419}, "grid_x": 8, "grid_y": 13, "snap_result_types": ["route"], "snap_result_place_id": "ChIJA-hCt3HKwoARlnxM1QuZJVY"}, {"raw_location": {"lat": 33.90601932461285, "lng": -118.26503165403719}, "snapped_location": {"lat": 33.9060141, "lng": -118.2652943}, "grid_x": 9, "grid_y": 13, "snap_result_types": ["route"], "snap_result_place_id": "ChIJ21ufY1rKwoARtNYTUClOxRI"}, {"raw_location": {"lat": 33.90601932461285, "lng": -118.24072609848163}, "snapped_location": {"lat": 33.9063872, "lng": -118.2410594}, "grid_x": 10, "grid_y": 13, "snap_result_types": ["route"], "snap_result_place_id": "ChIJh56dd6jLwoARNID1gYMMsRw"}, {"raw_location": {"lat": 33.90601932461285, "lng": -118.21642054292607}, "snapped_location": {"lat": 33.9061116, "lng": -118.2164035}, "grid_x": 11, "grid_y": 13, "snap_result_types": ["route"], "snap_result_place_id": "ChIJs2wU8nnLwoARcIMnSb6-n0g"}, {"raw_location": {"lat": 33.90601932461285, "lng": -118.19211498737052}, "snapped_location": {"lat": 33.9060328, "lng": -118.1924294}, "grid_x": 12, "grid_y": 13, "snap_result_types": ["route"], "snap_result_place_id": "ChIJY1LgI5DMwoARgi9PC8-ajks"}, {"raw_location": {"lat": 33.90601932461285, "lng": -118.16780943181496}, "snapped_location": {"lat": 33.9066556, "lng": -118.1685457}, "grid_x": 13, "grid_y": 13, "snap_result_types": ["route"], "snap_result_place_id": "ChIJL1aEeubMwoARvPLV-hhPMc8"}, {"raw_location": {"lat": 33.90601932461285, "lng": -118.14350387625942}, "snapped_location": {"lat": 33.9063122, "lng": -118.1430399}, "grid_x": 14, "grid_y": 13, "snap_result_types": ["route"], "snap_result_place_id": "ChIJ_2fEtz3NwoARKFl-dAlpzNc"}, {"raw_location": {"lat": 33.90601932461285, "lng": -118.11919832070386}, "snapped_location": {"lat": 33.9049614, "lng": -118.1193547}, "grid_x": 15, "grid_y": 13, "snap_result_types": ["route"], "snap_result_place_id": "ChIJIRVoFFrNwoARbv9AvuA5D6k"}, {"raw_location": {"lat": 33.90601932461285, "lng": -118.0948927651483}, "snapped_location": {"lat": 33.906616, "lng": -118.0948194}, "grid_x": 16, "grid_y": 13, "snap_result_types": ["route"], "snap_result_place_id": "ChIJXY-eNLHSwoARuO51KTTor0I"}, {"raw_location": {"lat": 33.90601932461285, "lng": -118.07058720959274}, "snapped_location": {"lat": 33.9057726, "lng": -118.071062}, "grid_x": 17, "grid_y": 13, "snap_result_types": ["route"], "snap_result_place_id": "ChIJDV45qtTSwoAR_NaywJcrumU"}, {"raw_location": {"lat": 33.90601932461285, "lng": -118.04628165403719}, "snapped_location": {"lat": 33.9059984, "lng": -118.0466555}, "grid_x": 18, "grid_y": 13, "snap_result_types": ["route"], "snap_result_place_id": "ChIJF0AIQ8ks3YAR_n03eVQAhDI"}, {"raw_location": {"lat": 33.88586593548507, "lng": -118.48378165403719}, "snapped_location": {"lat": 33.88586593548507, "lng": -118.48378165403719}, "grid_x": 0, "grid_y": 14, "snap_result_types": null, "snap_result_place_id": null}, {"raw_location": {"lat": 33.88586593548507, "lng": -118.45947609848163}, "snapped_location": {"lat": 33.88586593548507, "lng": -118.45947609848163}, "grid_x": 1, "grid_y": 14, "snap_result_types": null, "snap_result_place_id": null}, {"raw_location": {"lat": 33.88586593548507, "lng": -118.43517054292607}, "snapped_location": {"lat": 33.8925981, "lng": -118.4163703}, "grid_x": 2, "grid_y": 14, "snap_result_types": ["route"], "snap_result_place_id": "ChIJMapDX92zwoAR3BKY0tD7QF4"}, {"raw_location": {"lat": 33.88586593548507, "lng": -118.41086498737052}, "snapped_location": {"lat": 33.8859099, "lng": -118.4107505}, "grid_x": 3, "grid_y": 14, "snap_result_types": ["route"], "snap_result_place_id": "ChIJTTYihuuzwoARdEr7FAUFITY"}, {"raw_location": {"lat": 33.88586593548507, "lng": -118.38655943181496}, "snapped_location": {"lat": 33.8856106, "lng": -118.3862788}, "grid_x": 4, "grid_y": 14, "snap_result_types": ["route"], "snap_result_place_id": "ChIJYQ9ykHO0woAR8IGXyMEHJuU"}, {"raw_location": {"lat": 33.88586593548507, "lng": -118.36225387625942}, "snapped_location": {"lat": 33.8853782, "lng": -118.3623632}, "grid_x": 5, "grid_y": 14, "snap_result_types": ["route"], "snap_result_place_id": "ChIJdQqOuES0woARhkFaMu5BvhU"}, {"raw_location": {"lat": 33.88586593548507, "lng": -118.33794832070386}, "snapped_location": {"lat": 33.8873344, "lng": -118.3378025}, "grid_x": 6, "grid_y": 14, "snap_result_types": ["route"], "snap_result_place_id": "ChIJbzqe5K61woARVtCW6mQ-kOk"}, {"raw_location": {"lat": 33.88586593548507, "lng": -118.3136427651483}, "snapped_location": {"lat": 33.8855592, "lng": -118.3139156}, "grid_x": 7, "grid_y": 14, "snap_result_types": ["route"], "snap_result_place_id": "ChIJhT_jzHe1woARrkN-WMC_l3I"}, {"raw_location": {"lat": 33.88586593548507, "lng": -118.28933720959274}, "snapped_location": {"lat": 33.8861941, "lng": -118.2893252}, "grid_x": 8, "grid_y": 14, "snap_result_types": ["route"], "snap_result_place_id": "ChIJjbNrwIXKwoARLvWsNBhBPvw"}, {"raw_location": {"lat": 33.88586593548507, "lng": -118.26503165403719}, "snapped_location": {"lat": 33.8859843, "lng": -118.2646668}, "grid_x": 9, "grid_y": 14, "snap_result_types": ["route"], "snap_result_place_id": "ChIJUaU3neXKwoARcK3AzdeDjp8"}, {"raw_location": {"lat": 33.88586593548507, "lng": -118.24072609848163}, "snapped_location": {"lat": 33.8850607, "lng": -118.2407764}, "grid_x": 10, "grid_y": 14, "snap_result_types": ["route"], "snap_result_place_id": "ChIJJ5c2ihfLwoAR6u_4hVRMmZE"}, {"raw_location": {"lat": 33.88586593548507, "lng": -118.21642054292607}, "snapped_location": {"lat": 33.8864417, "lng": -118.2158645}, "grid_x": 11, "grid_y": 14, "snap_result_types": ["route"], "snap_result_place_id": "ChIJZ5k7lFzLwoAR7H6yYPMLMPY"}, {"raw_location": {"lat": 33.88586593548507, "lng": -118.19211498737052}, "snapped_location": {"lat": 33.8860629, "lng": -118.1919656}, "grid_x": 12, "grid_y": 14, "snap_result_types": ["route"], "snap_result_place_id": "ChIJI_H3eLDMwoARePVuiDeKtms"}, {"raw_location": {"lat": 33.88586593548507, "lng": -118.16780943181496}, "snapped_location": {"lat": 33.8853911, "lng": -118.1678982}, "grid_x": 13, "grid_y": 14, "snap_result_types": ["route"], "snap_result_place_id": "ChIJ3WowtdPMwoARzAs1ox9DhTY"}, {"raw_location": {"lat": 33.88586593548507, "lng": -118.14350387625942}, "snapped_location": {"lat": 33.8856251, "lng": -118.144983}, "grid_x": 14, "grid_y": 14, "snap_result_types": ["route"], "snap_result_place_id": "ChIJ3RS2G80y3YARItB_cP1qnfQ"}, {"raw_location": {"lat": 33.88586593548507, "lng": -118.11919832070386}, "snapped_location": {"lat": 33.8857604, "lng": -118.1198165}, "grid_x": 15, "grid_y": 14, "snap_result_types": ["route"], "snap_result_place_id": "ChIJ3004Hq8y3YARHLef-wM2bl0"}, {"raw_location": {"lat": 33.88586593548507, "lng": -118.0948927651483}, "snapped_location": {"lat": 33.8856907, "lng": -118.0945358}, "grid_x": 16, "grid_y": 14, "snap_result_types": ["route"], "snap_result_place_id": "ChIJr9Gnn0Yt3YAR7JgG5x85-_c"}, {"raw_location": {"lat": 33.88586593548507, "lng": -118.07058720959274}, "snapped_location": {"lat": 33.8857605, "lng": -118.0705611}, "grid_x": 17, "grid_y": 14, "snap_result_types": ["route"], "snap_result_place_id": "ChIJvZKc-iEt3YARwMy2yqOvyL8"}, {"raw_location": {"lat": 33.88586593548507, "lng": -118.04628165403719}, "snapped_location": {"lat": 33.8856958, "lng": -118.0464575}, "grid_x": 18, "grid_y": 14, "snap_result_types": ["route"], "snap_result_place_id": "ChIJmZpXC-ws3YAR1OrUNTi081A"}, {"raw_location": {"lat": 33.8657125463573, "lng": -118.48378165403719}, "snapped_location": {"lat": 33.8657125463573, "lng": -118.48378165403719}, "grid_x": 0, "grid_y": 15, "snap_result_types": null, "snap_result_place_id": null}, {"raw_location": {"lat": 33.8657125463573, "lng": -118.45947609848163}, "snapped_location": {"lat": 33.8657125463573, "lng": -118.45947609848163}, "grid_x": 1, "grid_y": 15, "snap_result_types": null, "snap_result_place_id": null}, {"raw_location": {"lat": 33.8657125463573, "lng": -118.43517054292607}, "snapped_location": {"lat": 33.8657125463573, "lng": -118.43517054292607}, "grid_x": 2, "grid_y": 15, "snap_result_types": null, "snap_result_place_id": null}, {"raw_location": {"lat": 33.8657125463573, "lng": -118.41086498737052}, "snapped_location": {"lat": 33.8680239, "lng": -118.4039262}, "grid_x": 3, "grid_y": 15, "snap_result_types": ["route"], "snap_result_place_id": "ChIJzZmgSIOzwoAR0ktOoVNmwE0"}, {"raw_location": {"lat": 33.8657125463573, "lng": -118.38655943181496}, "snapped_location": {"lat": 33.8655791, "lng": -118.3864661}, "grid_x": 4, "grid_y": 15, "snap_result_types": ["route"], "snap_result_place_id": "ChIJjT-i14a0woAR-OZEBqK1Yj8"}, {"raw_location": {"lat": 33.8657125463573, "lng": -118.36225387625942}, "snapped_location": {"lat": 33.8655403, "lng": -118.3621339}, "grid_x": 5, "grid_y": 15, "snap_result_types": ["route"], "snap_result_place_id": "ChIJZ3Ctv_G0woARzkXnFY8BhEY"}, {"raw_location": {"lat": 33.8657125463573, "lng": -118.33794832070386}, "snapped_location": {"lat": 33.8655789, "lng": -118.3378768}, "grid_x": 6, "grid_y": 15, "snap_result_types": ["route"], "snap_result_place_id": "ChIJtcUu0hu1woARxOkcFXOPOO8"}, {"raw_location": {"lat": 33.8657125463573, "lng": -118.3136427651483}, "snapped_location": {"lat": 33.86561349999999, "lng": -118.3136388}, "grid_x": 7, "grid_y": 15, "snap_result_types": ["route"], "snap_result_place_id": "ChIJ7St9hEK1woARTr4g-RtQxNw"}, {"raw_location": {"lat": 33.8657125463573, "lng": -118.28933720959274}, "snapped_location": {"lat": 33.8663738, "lng": -118.289419}, "grid_x": 8, "grid_y": 15, "snap_result_types": ["route"], "snap_result_place_id": "ChIJowIHmaTKwoARiuN0vYVPu_8"}, {"raw_location": {"lat": 33.8657125463573, "lng": -118.26503165403719}, "snapped_location": {"lat": 33.86524, "lng": -118.265609}, "grid_x": 9, "grid_y": 15, "snap_result_types": ["route"], "snap_result_place_id": "ChIJxfipy8_KwoARIFj3-ZA9pNU"}, {"raw_location": {"lat": 33.8657125463573, "lng": -118.24072609848163}, "snapped_location": {"lat": 33.867271, "lng": -118.241026}, "grid_x": 10, "grid_y": 15, "snap_result_types": ["route"], "snap_result_place_id": "ChIJX2e8ii3LwoARtKj8qDG-fIA"}, {"raw_location": {"lat": 33.8657125463573, "lng": -118.21642054292607}, "snapped_location": {"lat": 33.8654709, "lng": -118.2161718}, "grid_x": 11, "grid_y": 15, "snap_result_types": ["route"], "snap_result_place_id": "ChIJSZZG6K003YARKtrx4W4GHME"}, {"raw_location": {"lat": 33.8657125463573, "lng": -118.19211498737052}, "snapped_location": {"lat": 33.8658552, "lng": -118.1920406}, "grid_x": 12, "grid_y": 15, "snap_result_types": ["route"], "snap_result_place_id": "ChIJ9e0VfU8z3YARxjx-Zbx3vfI"}, {"raw_location": {"lat": 33.8657125463573, "lng": -118.16780943181496}, "snapped_location": {"lat": 33.86588650000001, "lng": -118.16853}, "grid_x": 13, "grid_y": 15, "snap_result_types": ["route"], "snap_result_place_id": "ChIJ10rafCMz3YARCMBXHbElTOI"}, {"raw_location": {"lat": 33.8657125463573, "lng": -118.14350387625942}, "snapped_location": {"lat": 33.8659706, "lng": -118.1436318}, "grid_x": 14, "grid_y": 15, "snap_result_types": ["route"], "snap_result_place_id": "ChIJJ-3Kx-ky3YARVDT7ajpEhms"}, {"raw_location": {"lat": 33.8657125463573, "lng": -118.11919832070386}, "snapped_location": {"lat": 33.8655606, "lng": -118.1190846}, "grid_x": 15, "grid_y": 15, "snap_result_types": ["route"], "snap_result_place_id": "ChIJoTujnZsy3YARLPRNJ2G7lv4"}, {"raw_location": {"lat": 33.8657125463573, "lng": -118.0948927651483}, "snapped_location": {"lat": 33.8657129, "lng": -118.0952097}, "grid_x": 16, "grid_y": 15, "snap_result_types": ["route"], "snap_result_place_id": "ChIJ9SEFe3Et3YARVu7WdK74zq8"}, {"raw_location": {"lat": 33.8657125463573, "lng": -118.07058720959274}, "snapped_location": {"lat": 33.8658133, "lng": -118.0705428}, "grid_x": 17, "grid_y": 15, "snap_result_types": ["route"], "snap_result_place_id": "ChIJhZwCtgAt3YARYpAa8OpXqEM"}, {"raw_location": {"lat": 33.8657125463573, "lng": -118.04628165403719}, "snapped_location": {"lat": 33.8655763, "lng": -118.0462922}, "grid_x": 18, "grid_y": 15, "snap_result_types": ["route"], "snap_result_place_id": "ChIJwR8Nn14s3YARfnkiEOUYEvo"}, {"raw_location": {"lat": 33.84555915722953, "lng": -118.48378165403719}, "snapped_location": {"lat": 33.84555915722953, "lng": -118.48378165403719}, "grid_x": 0, "grid_y": 16, "snap_result_types": null, "snap_result_place_id": null}, {"raw_location": {"lat": 33.84555915722953, "lng": -118.45947609848163}, "snapped_location": {"lat": 33.84555915722953, "lng": -118.45947609848163}, "grid_x": 1, "grid_y": 16, "snap_result_types": null, "snap_result_place_id": null}, {"raw_location": {"lat": 33.84555915722953, "lng": -118.43517054292607}, "snapped_location": {"lat": 33.84555915722953, "lng": -118.43517054292607}, "grid_x": 2, "grid_y": 16, "snap_result_types": null, "snap_result_place_id": null}, {"raw_location": {"lat": 33.84555915722953, "lng": -118.41086498737052}, "snapped_location": {"lat": 33.850323, "lng": -118.3996726}, "grid_x": 3, "grid_y": 16, "snap_result_types": ["route"], "snap_result_place_id": "ChIJ30xZEGSzwoAR2pvKgcDQkZw"}, {"raw_location": {"lat": 33.84555915722953, "lng": -118.38655943181496}, "snapped_location": {"lat": 33.8455522, "lng": -118.3864883}, "grid_x": 4, "grid_y": 16, "snap_result_types": ["route"], "snap_result_place_id": "ChIJ6x9uLqK0woARuFWn6aXaLBk"}, {"raw_location": {"lat": 33.84555915722953, "lng": -118.36225387625942}, "snapped_location": {"lat": 33.8454673, "lng": -118.3623671}, "grid_x": 5, "grid_y": 16, "snap_result_types": ["route"], "snap_result_place_id": "ChIJuaFBysW0woARzIElOmHk1XE"}, {"raw_location": {"lat": 33.84555915722953, "lng": -118.33794832070386}, "snapped_location": {"lat": 33.8454586, "lng": -118.3376006}, "grid_x": 6, "grid_y": 16, "snap_result_types": ["route"], "snap_result_place_id": "ChIJEyVTfi61woARBGz3HuK37ac"}, {"raw_location": {"lat": 33.84555915722953, "lng": -118.3136427651483}, "snapped_location": {"lat": 33.845488, "lng": -118.3132556}, "grid_x": 7, "grid_y": 16, "snap_result_types": ["route"], "snap_result_place_id": "ChIJAcSOMk21woARgiFkYgeV0iw"}, {"raw_location": {"lat": 33.84555915722953, "lng": -118.28933720959274}, "snapped_location": {"lat": 33.8462215, "lng": -118.2895188}, "grid_x": 8, "grid_y": 16, "snap_result_types": ["route"], "snap_result_place_id": "ChIJhxETilE13YARlwl-FP4qdN4"}, {"raw_location": {"lat": 33.84555915722953, "lng": -118.26503165403719}, "snapped_location": {"lat": 33.8455989, "lng": -118.26455}, "grid_x": 9, "grid_y": 16, "snap_result_types": ["route"], "snap_result_place_id": "ChIJje6KzDo13YARSuDT2e0q2LY"}, {"raw_location": {"lat": 33.84555915722953, "lng": -118.24072609848163}, "snapped_location": {"lat": 33.846746, "lng": -118.2414538}, "grid_x": 10, "grid_y": 16, "snap_result_types": ["route"], "snap_result_place_id": "ChIJbTQjttw03YARjBAWjOTmpZo"}, {"raw_location": {"lat": 33.84555915722953, "lng": -118.21642054292607}, "snapped_location": {"lat": 33.8465628, "lng": -118.2165402}, "grid_x": 11, "grid_y": 16, "snap_result_types": ["route"], "snap_result_place_id": "ChIJ95S1LZg03YAR74SHIzFFseM"}, {"raw_location": {"lat": 33.84555915722953, "lng": -118.19211498737052}, "snapped_location": {"lat": 33.8460745, "lng": -118.1916894}, "grid_x": 12, "grid_y": 16, "snap_result_types": ["route"], "snap_result_place_id": "ChIJPetoyW8z3YARYACMi3XnliM"}, {"raw_location": {"lat": 33.84555915722953, "lng": -118.16780943181496}, "snapped_location": {"lat": 33.8455355, "lng": -118.167616}, "grid_x": 13, "grid_y": 16, "snap_result_types": ["route"], "snap_result_place_id": "ChIJ59PphgYz3YAR8kG5vvk9Er8"}, {"raw_location": {"lat": 33.84555915722953, "lng": -118.14350387625942}, "snapped_location": {"lat": 33.8457684, "lng": -118.1436638}, "grid_x": 14, "grid_y": 16, "snap_result_types": ["route"], "snap_result_place_id": "ChIJDZE1kFgy3YAREtdhepmWmqI"}, {"raw_location": {"lat": 33.84555915722953, "lng": -118.11919832070386}, "snapped_location": {"lat": 33.8459181, "lng": -118.1190989}, "grid_x": 15, "grid_y": 16, "snap_result_types": ["route"], "snap_result_place_id": "ChIJ0byFw3sy3YAR0vdmyvoirKE"}, {"raw_location": {"lat": 33.84555915722953, "lng": -118.0948927651483}, "snapped_location": {"lat": 33.8452581, "lng": -118.0944159}, "grid_x": 16, "grid_y": 16, "snap_result_types": ["route"], "snap_result_place_id": "ChIJodA2vJYt3YARltPPiSLuKgU"}, {"raw_location": {"lat": 33.84555915722953, "lng": -118.07058720959274}, "snapped_location": {"lat": 33.84514619999999, "lng": -118.0703201}, "grid_x": 17, "grid_y": 16, "snap_result_types": ["route"], "snap_result_place_id": "ChIJ58o96bUt3YARkBU7FjbyI8o"}, {"raw_location": {"lat": 33.84555915722953, "lng": -118.04628165403719}, "snapped_location": {"lat": 33.8456554, "lng": -118.0460782}, "grid_x": 18, "grid_y": 16, "snap_result_types": ["route"], "snap_result_place_id": "ChIJTXVNlz4s3YARkq_d51KVgTw"}, {"raw_location": {"lat": 33.82540576810176, "lng": -118.48378165403719}, "snapped_location": {"lat": 33.82540576810176, "lng": -118.48378165403719}, "grid_x": 0, "grid_y": 17, "snap_result_types": null, "snap_result_place_id": null}, {"raw_location": {"lat": 33.82540576810176, "lng": -118.45947609848163}, "snapped_location": {"lat": 33.82540576810176, "lng": -118.45947609848163}, "grid_x": 1, "grid_y": 17, "snap_result_types": null, "snap_result_place_id": null}, {"raw_location": {"lat": 33.82540576810176, "lng": -118.43517054292607}, "snapped_location": {"lat": 33.82540576810176, "lng": -118.43517054292607}, "grid_x": 2, "grid_y": 17, "snap_result_types": null, "snap_result_place_id": null}, {"raw_location": {"lat": 33.82540576810176, "lng": -118.41086498737052}, "snapped_location": {"lat": 33.8262491, "lng": -118.3900031}, "grid_x": 3, "grid_y": 17, "snap_result_types": ["route"], "snap_result_place_id": "ChIJAYqAKlVL3YARJghQiwd7YXs"}, {"raw_location": {"lat": 33.82540576810176, "lng": -118.38655943181496}, "snapped_location": {"lat": 33.8256156, "lng": -118.3867533}, "grid_x": 4, "grid_y": 17, "snap_result_types": ["route"], "snap_result_place_id": "ChIJWVfXYVNL3YARNjqfyMjAOQU"}, {"raw_location": {"lat": 33.82540576810176, "lng": -118.36225387625942}, "snapped_location": {"lat": 33.82577, "lng": -118.3624005}, "grid_x": 5, "grid_y": 17, "snap_result_types": ["route"], "snap_result_place_id": "ChIJ0Um7ITFL3YARJNfJSB6tDJg"}, {"raw_location": {"lat": 33.82540576810176, "lng": -118.33794832070386}, "snapped_location": {"lat": 33.8253626, "lng": -118.338089}, "grid_x": 6, "grid_y": 17, "snap_result_types": ["route"], "snap_result_place_id": "ChIJ14CNvNtK3YARtuVU0SrlT2M"}, {"raw_location": {"lat": 33.82540576810176, "lng": -118.3136427651483}, "snapped_location": {"lat": 33.8254419, "lng": -118.314237}, "grid_x": 7, "grid_y": 17, "snap_result_types": ["route"], "snap_result_place_id": "ChIJz9i0g71K3YARJkNXWRFU4o0"}, {"raw_location": {"lat": 33.82540576810176, "lng": -118.28933720959274}, "snapped_location": {"lat": 33.8252592, "lng": -118.2889665}, "grid_x": 8, "grid_y": 17, "snap_result_types": ["route"], "snap_result_place_id": "ChIJ6Ts66GU13YAROvztjv8UccY"}, {"raw_location": {"lat": 33.82540576810176, "lng": -118.26503165403719}, "snapped_location": {"lat": 33.8254321, "lng": -118.2648208}, "grid_x": 9, "grid_y": 17, "snap_result_types": ["route"], "snap_result_place_id": "ChIJYxbIjA813YARAMCSx9K0AlI"}, {"raw_location": {"lat": 33.82540576810176, "lng": -118.24072609848163}, "snapped_location": {"lat": 33.8257675, "lng": -118.240867}, "grid_x": 10, "grid_y": 17, "snap_result_types": ["route"], "snap_result_place_id": "ChIJGVu2ZPc03YARGEzDQtfTGJk"}, {"raw_location": {"lat": 33.82540576810176, "lng": -118.21642054292607}, "snapped_location": {"lat": 33.825417, "lng": -118.2164107}, "grid_x": 11, "grid_y": 17, "snap_result_types": ["route"], "snap_result_place_id": "ChIJlWHp3Hw03YARjjvyCkoiWR8"}, {"raw_location": {"lat": 33.82540576810176, "lng": -118.19211498737052}, "snapped_location": {"lat": 33.8248975, "lng": -118.1918036}, "grid_x": 12, "grid_y": 17, "snap_result_types": ["route"], "snap_result_place_id": "ChIJI8V5hZoz3YAR-vFQwi_PQLo"}, {"raw_location": {"lat": 33.82540576810176, "lng": -118.16780943181496}, "snapped_location": {"lat": 33.8254491, "lng": -118.1677226}, "grid_x": 13, "grid_y": 17, "snap_result_types": ["route"], "snap_result_place_id": "ChIJD2g6KrEz3YARTgj2EImhmHk"}, {"raw_location": {"lat": 33.82540576810176, "lng": -118.14350387625942}, "snapped_location": {"lat": 33.8250398, "lng": -118.1437563}, "grid_x": 14, "grid_y": 17, "snap_result_types": ["route"], "snap_result_place_id": "ChIJD0rKjjgy3YARZAaKHGSVIDo"}, {"raw_location": {"lat": 33.82540576810176, "lng": -118.11919832070386}, "snapped_location": {"lat": 33.826341, "lng": -118.1190646}, "grid_x": 15, "grid_y": 17, "snap_result_types": ["route"], "snap_result_place_id": "ChIJJ6zbpA4y3YARpAMAGnl9ofc"}, {"raw_location": {"lat": 33.82540576810176, "lng": -118.0948927651483}, "snapped_location": {"lat": 33.8255945, "lng": -118.0945863}, "grid_x": 16, "grid_y": 17, "snap_result_types": ["route"], "snap_result_place_id": "ChIJ0WthfOYt3YARxn1vBaDi82M"}, {"raw_location": {"lat": 33.82540576810176, "lng": -118.07058720959274}, "snapped_location": {"lat": 33.8254655, "lng": -118.07094}, "grid_x": 17, "grid_y": 17, "snap_result_types": ["route"], "snap_result_place_id": "ChIJ1zkc0NUt3YARDkOuj8cW3is"}, {"raw_location": {"lat": 33.82540576810176, "lng": -118.04628165403719}, "snapped_location": {"lat": 33.8254928, "lng": -118.0460468}, "grid_x": 18, "grid_y": 17, "snap_result_types": ["route"], "snap_result_place_id": "ChIJDc3Hw54u3YARIMhEWlqXymE"}, {"raw_location": {"lat": 33.80525237897399, "lng": -118.48378165403719}, "snapped_location": {"lat": 33.80525237897399, "lng": -118.48378165403719}, "grid_x": 0, "grid_y": 18, "snap_result_types": null, "snap_result_place_id": null}, {"raw_location": {"lat": 33.80525237897399, "lng": -118.45947609848163}, "snapped_location": {"lat": 33.80525237897399, "lng": -118.45947609848163}, "grid_x": 1, "grid_y": 18, "snap_result_types": null, "snap_result_place_id": null}, {"raw_location": {"lat": 33.80525237897399, "lng": -118.43517054292607}, "snapped_location": {"lat": 33.80525237897399, "lng": -118.43517054292607}, "grid_x": 2, "grid_y": 18, "snap_result_types": null, "snap_result_place_id": null}, {"raw_location": {"lat": 33.80525237897399, "lng": -118.41086498737052}, "snapped_location": {"lat": 33.8001763, "lng": -118.404039}, "grid_x": 3, "grid_y": 18, "snap_result_types": ["route"], "snap_result_place_id": "ChIJIUJoLphM3YAR4rlNpvri2OE"}, {"raw_location": {"lat": 33.80525237897399, "lng": -118.38655943181496}, "snapped_location": {"lat": 33.8056286, "lng": -118.3872579}, "grid_x": 4, "grid_y": 18, "snap_result_types": ["route"], "snap_result_place_id": "ChIJO-dIsWBL3YARINugFYf2-24"}, {"raw_location": {"lat": 33.80525237897399, "lng": -118.36225387625942}, "snapped_location": {"lat": 33.8056074, "lng": -118.362752}, "grid_x": 5, "grid_y": 18, "snap_result_types": ["route"], "snap_result_place_id": "ChIJzf_kcRFL3YARprK-r57iZxU"}, {"raw_location": {"lat": 33.80525237897399, "lng": -118.33794832070386}, "snapped_location": {"lat": 33.8054845, "lng": -118.3378035}, "grid_x": 6, "grid_y": 18, "snap_result_types": ["route"], "snap_result_place_id": "ChIJf9F1rvtK3YARPkYpSaZpC3Q"}, {"raw_location": {"lat": 33.80525237897399, "lng": -118.3136427651483}, "snapped_location": {"lat": 33.805734, "lng": -118.3133924}, "grid_x": 7, "grid_y": 18, "snap_result_types": ["route"], "snap_result_place_id": "ChIJPVgXSIhK3YARtlvcc9Efe7Q"}, {"raw_location": {"lat": 33.80525237897399, "lng": -118.28933720959274}, "snapped_location": {"lat": 33.8053585, "lng": -118.2885657}, "grid_x": 8, "grid_y": 18, "snap_result_types": ["route"], "snap_result_place_id": "ChIJT8cfWIM13YARtlENUbEONCQ"}, {"raw_location": {"lat": 33.80525237897399, "lng": -118.26503165403719}, "snapped_location": {"lat": 33.80493, "lng": -118.2652619}, "grid_x": 9, "grid_y": 18, "snap_result_types": ["route"], "snap_result_place_id": "ChIJ4022vbo13YARGNVFfRTR8bM"}, {"raw_location": {"lat": 33.80525237897399, "lng": -118.24072609848163}, "snapped_location": {"lat": 33.8075984, "lng": -118.2415775}, "grid_x": 10, "grid_y": 18, "snap_result_types": ["route"], "snap_result_place_id": "ChIJSR4mP0803YAR3KQYGRrTRMA"}, {"raw_location": {"lat": 33.80525237897399, "lng": -118.21642054292607}, "snapped_location": {"lat": 33.8055812, "lng": -118.2168812}, "grid_x": 11, "grid_y": 18, "snap_result_types": ["route"], "snap_result_place_id": "ChIJe1dGdw003YARugPB-ORoI14"}, {"raw_location": {"lat": 33.80525237897399, "lng": -118.19211498737052}, "snapped_location": {"lat": 33.80516, "lng": -118.1916856}, "grid_x": 12, "grid_y": 18, "snap_result_types": ["route"], "snap_result_place_id": "ChIJbYURou8z3YARgI156FOrlMU"}, {"raw_location": {"lat": 33.80525237897399, "lng": -118.16780943181496}, "snapped_location": {"lat": 33.8053944, "lng": -118.1675994}, "grid_x": 13, "grid_y": 18, "snap_result_types": ["route"], "snap_result_place_id": "ChIJD5lBJtEz3YARNP8AFOmC91I"}, {"raw_location": {"lat": 33.80525237897399, "lng": -118.14350387625942}, "snapped_location": {"lat": 33.8058904, "lng": -118.1437259}, "grid_x": 14, "grid_y": 18, "snap_result_types": ["route"], "snap_result_place_id": "ChIJ-1T8Yycy3YARKht9Qo9jEmo"}, {"raw_location": {"lat": 33.80525237897399, "lng": -118.11919832070386}, "snapped_location": {"lat": 33.8051679, "lng": -118.1184274}, "grid_x": 15, "grid_y": 18, "snap_result_types": ["route"], "snap_result_place_id": "ChIJg1v_9Psx3YARuP0XrZU3JRc"}, {"raw_location": {"lat": 33.80525237897399, "lng": -118.0948927651483}, "snapped_location": {"lat": 33.8034197, "lng": -118.096005}, "grid_x": 16, "grid_y": 18, "snap_result_types": ["route"], "snap_result_place_id": "ChIJQ6DJ2BMu3YAR3BpBFgxc2HU"}, {"raw_location": {"lat": 33.80525237897399, "lng": -118.07058720959274}, "snapped_location": {"lat": 33.80521280000001, "lng": -118.0705859}, "grid_x": 17, "grid_y": 18, "snap_result_types": ["route"], "snap_result_place_id": "ChIJL-1Z12Au3YAR3k19uVCK87I"}, {"raw_location": {"lat": 33.80525237897399, "lng": -118.04628165403719}, "snapped_location": {"lat": 33.8051502, "lng": -118.0467459}, "grid_x": 18, "grid_y": 18, "snap_result_types": ["route"], "snap_result_place_id": "ChIJUZBllOsu3YARME9yAHXTcoM"}], "route_matrix": [{"originIndex": 0, "destinationIndex": 19, "status": {}, "distanceMeters": 5688, "duration": "465s", "condition": "ROUTE_EXISTS"}, {"originIndex": 0, "destinationIndex": 2, "status": {}, "distanceMeters": 4836, "duration": "503s", "condition": "ROUTE_EXISTS"}, {"originIndex": 0, "destinationIndex": 20, "status": {}, "distanceMeters": 5563, "duration": "470s", "condition": "ROUTE_EXISTS"}, {"originIndex": 0, "destinationIndex": 1, "status": {}, "distanceMeters": 2789, "duration": "337s", "condition": "ROUTE_EXISTS"}, {"originIndex": 0, "destinationIndex": 38, "status": {}, "distanceMeters": 10565, "duration": "791s", "condition": "ROUTE_EXISTS"}, {"originIndex": 1, "destinationIndex": 3, "status": {}, "distanceMeters": 5187, "duration": "531s", "condition": "ROUTE_EXISTS"}, {"originIndex": 1, "destinationIndex": 21, "status": {}, "distanceMeters": 4400, "duration": "553s", "condition": "ROUTE_EXISTS"}, {"originIndex": 1, "destinationIndex": 20, "status": {}, "distanceMeters": 2529, "duration": "316s", "condition": "ROUTE_EXISTS"}, {"originIndex": 1, "destinationIndex": 19, "status": {}, "distanceMeters": 4456, "duration": "598s", "condition": "ROUTE_EXISTS"}, {"originIndex": 1, "destinationIndex": 39, "status": {}, "distanceMeters": 5574, "duration": "738s", "condition": "ROUTE_EXISTS"}, {"originIndex": 1, "destinationIndex": 2, "status": {}, "distanceMeters": 2863, "duration": "330s", "condition": "ROUTE_EXISTS"}, {"originIndex": 2, "destinationIndex": 20, "status": {}, "distanceMeters": 4373, "duration": "494s", "condition": "ROUTE_EXISTS"}, {"originIndex": 2, "destinationIndex": 3, "status": {}, "distanceMeters": 2331, "duration": "248s", "condition": "ROUTE_EXISTS"}, {"originIndex": 2, "destinationIndex": 4, "status": {}, "distanceMeters": 4628, "duration": "523s", "condition": "ROUTE_EXISTS"}, {"originIndex": 2, "destinationIndex": 22, "status": {}, "distanceMeters": 4708, "duration": "518s", "condition": "ROUTE_EXISTS"}, {"originIndex": 2, "destinationIndex": 40, "status": {}, "distanceMeters": 7262, "duration": "786s", "condition": "ROUTE_EXISTS"}, {"originIndex": 2, "destinationIndex": 21, "status": {}, "distanceMeters": 3160, "duration": "416s", "condition": "ROUTE_EXISTS"}, {"originIndex": 3, "destinationIndex": 4, "status": {}, "distanceMeters": 2296, "duration": "275s", "condition": "ROUTE_EXISTS"}, {"originIndex": 3, "destinationIndex": 23, "status": {}, "distanceMeters": 4470, "duration": "505s", "condition": "ROUTE_EXISTS"}, {"originIndex": 3, "destinationIndex": 22, "status": {}, "distanceMeters": 3495, "duration": "378s", "condition": "ROUTE_EXISTS"}, {"originIndex": 3, "destinationIndex": 5, "status": {}, "distanceMeters": 4680, "duration": "588s", "condition": "ROUTE_EXISTS"}, {"originIndex": 3, "destinationIndex": 41, "status": {}, "distanceMeters": 6183, "duration": "749s", "condition": "ROUTE_EXISTS"}, {"originIndex": 3, "destinationIndex": 21, "status": {}, "distanceMeters": 5001, "duration": "590s", "condition": "ROUTE_EXISTS"}, {"originIndex": 4, "destinationIndex": 24, "status": {}, "distanceMeters": 4127, "duration": "351s", "condition": "ROUTE_EXISTS"}, {"originIndex": 4, "destinationIndex": 22, "status": {}, "distanceMeters": 4671, "duration": "539s", "condition": "ROUTE_EXISTS"}, {"originIndex": 4, "destinationIndex": 23, "status": {}, "distanceMeters": 2429, "duration": "344s", "condition": "ROUTE_EXISTS"}, {"originIndex": 4, "destinationIndex": 6, "status": {}, "distanceMeters": 5107, "duration": "676s", "condition": "ROUTE_EXISTS"}, {"originIndex": 4, "destinationIndex": 41, "status": {}, "distanceMeters": 8137, "duration": "939s", "condition": "ROUTE_EXISTS"}, {"originIndex": 4, "destinationIndex": 42, "status": {}, "distanceMeters": 6054, "duration": "738s", "condition": "ROUTE_EXISTS"}, {"originIndex": 4, "destinationIndex": 5, "status": {}, "distanceMeters": 2478, "duration": "368s", "condition": "ROUTE_EXISTS"}, {"originIndex": 5, "destinationIndex": 24, "status": {}, "distanceMeters": 2308, "duration": "272s", "condition": "ROUTE_EXISTS"}, {"originIndex": 5, "destinationIndex": 6, "status": {}, "distanceMeters": 2753, "duration": "309s", "condition": "ROUTE_EXISTS"}, {"originIndex": 5, "destinationIndex": 7, "status": {}, "distanceMeters": 5750, "duration": "603s", "condition": "ROUTE_EXISTS"}, {"originIndex": 5, "destinationIndex": 25, "status": {}, "distanceMeters": 3956, "duration": "518s", "condition": "ROUTE_EXISTS"}, {"originIndex": 5, "destinationIndex": 23, "status": {}, "distanceMeters": 4518, "duration": "576s", "condition": "ROUTE_EXISTS"}, {"originIndex": 5, "destinationIndex": 43, "status": {}, "distanceMeters": 7141, "duration": "916s", "condition": "ROUTE_EXISTS"}, {"originIndex": 5, "destinationIndex": 44, "status": {}, "distanceMeters": 6345, "duration": "707s", "condition": "ROUTE_EXISTS"}, {"originIndex": 6, "destinationIndex": 26, "status": {}, "distanceMeters": 5535, "duration": "592s", "condition": "ROUTE_EXISTS"}, {"originIndex": 6, "destinationIndex": 7, "status": {}, "distanceMeters": 3410, "duration": "387s", "condition": "ROUTE_EXISTS"}, {"originIndex": 6, "destinationIndex": 8, "status": {}, "distanceMeters": 6462, "duration": "709s", "condition": "ROUTE_EXISTS"}, {"originIndex": 6, "destinationIndex": 25, "status": {}, "distanceMeters": 3262, "duration": "509s", "condition": "ROUTE_EXISTS"}, {"originIndex": 6, "destinationIndex": 24, "status": {}, "distanceMeters": 4299, "duration": "499s", "condition": "ROUTE_EXISTS"}, {"originIndex": 6, "destinationIndex": 44, "status": {}, "distanceMeters": 5652, "duration": "698s", "condition": "ROUTE_EXISTS"}, {"originIndex": 7, "destinationIndex": 8, "status": {}, "distanceMeters": 3211, "duration": "452s", "condition": "ROUTE_EXISTS"}, {"originIndex": 7, "destinationIndex": 44, "status": {}, "distanceMeters": 6844, "duration": "783s", "condition": "ROUTE_EXISTS"}, {"originIndex": 7, "destinationIndex": 26, "status": {}, "distanceMeters": 5842, "duration": "590s", "condition": "ROUTE_EXISTS"}, {"originIndex": 7, "destinationIndex": 27, "status": {}, "distanceMeters": 4489, "duration": "599s", "condition": "ROUTE_EXISTS"}, {"originIndex": 7, "destinationIndex": 9, "status": {}, "distanceMeters": 7508, "duration": "655s", "condition": "ROUTE_EXISTS"}, {"originIndex": 7, "destinationIndex": 25, "status": {}, "distanceMeters": 4237, "duration": "573s", "condition": "ROUTE_EXISTS"}, {"originIndex": 7, "destinationIndex": 45, "status": {}, "distanceMeters": 13349, "duration": "1310s", "condition": "ROUTE_EXISTS"}, {"originIndex": 8, "destinationIndex": 9, "status": {}, "distanceMeters": 2833, "duration": "394s", "condition": "ROUTE_EXISTS"}, {"originIndex": 8, "destinationIndex": 27, "status": {}, "distanceMeters": 3826, "duration": "533s", "condition": "ROUTE_EXISTS"}, {"originIndex": 8, "destinationIndex": 10, "status": {}, "distanceMeters": 6365, "duration": "791s", "condition": "ROUTE_EXISTS"}, {"originIndex": 8, "destinationIndex": 28, "status": {}, "distanceMeters": 3617, "duration": "397s", "condition": "ROUTE_EXISTS"}, {"originIndex": 8, "destinationIndex": 26, "status": {}, "distanceMeters": 5443, "duration": "531s", "condition": "ROUTE_EXISTS"}, {"originIndex": 8, "destinationIndex": 46, "status": {}, "distanceMeters": 9876, "duration": "756s", "condition": "ROUTE_EXISTS"}, {"originIndex": 9, "destinationIndex": 28, "status": {}, "distanceMeters": 2323, "duration": "380s", "condition": "ROUTE_EXISTS"}, {"originIndex": 9, "destinationIndex": 29, "status": {}, "distanceMeters": 4536, "duration": "586s", "condition": "ROUTE_EXISTS"}, {"originIndex": 9, "destinationIndex": 10, "status": {}, "distanceMeters": 3772, "duration": "494s", "condition": "ROUTE_EXISTS"}, {"originIndex": 9, "destinationIndex": 27, "status": {}, "distanceMeters": 6022, "duration": "710s", "condition": "ROUTE_EXISTS"}, {"originIndex": 9, "destinationIndex": 11, "status": {}, "distanceMeters": 5841, "duration": "758s", "condition": "ROUTE_EXISTS"}, {"originIndex": 9, "destinationIndex": 47, "status": {}, "distanceMeters": 8383, "duration": "704s", "condition": "ROUTE_EXISTS"}, {"originIndex": 10, "destinationIndex": 30, "status": {}, "distanceMeters": 4549, "duration": "426s", "condition": "ROUTE_EXISTS"}, {"originIndex": 10, "destinationIndex": 28, "status": {}, "distanceMeters": 5311, "duration": "569s", "condition": "ROUTE_EXISTS"}, {"originIndex": 10, "destinationIndex": 29, "status": {}, "distanceMeters": 3350, "duration": "400s", "condition": "ROUTE_EXISTS"}, {"originIndex": 10, "destinationIndex": 48, "status": {}, "distanceMeters": 7476, "duration": "591s", "condition": "ROUTE_EXISTS"}, {"originIndex": 10, "destinationIndex": 12, "status": {}, "distanceMeters": 7827, "duration": "843s", "condition": "ROUTE_EXISTS"}, {"originIndex": 10, "destinationIndex": 11, "status": {}, "distanceMeters": 3113, "duration": "396s", "condition": "ROUTE_EXISTS"}, {"originIndex": 11, "destinationIndex": 30, "status": {}, "distanceMeters": 4213, "duration": "397s", "condition": "ROUTE_EXISTS"}, {"originIndex": 11, "destinationIndex": 12, "status": {}, "distanceMeters": 6555, "duration": "684s", "condition": "ROUTE_EXISTS"}, {"originIndex": 11, "destinationIndex": 49, "status": {}, "distanceMeters": 7378, "duration": "604s", "condition": "ROUTE_EXISTS"}, {"originIndex": 11, "destinationIndex": 13, "status": {}, "distanceMeters": 13667, "duration": "746s", "condition": "ROUTE_EXISTS"}, {"originIndex": 11, "destinationIndex": 29, "status": {}, "distanceMeters": 4318, "duration": "509s", "condition": "ROUTE_EXISTS"}, {"originIndex": 11, "destinationIndex": 31, "status": {}, "distanceMeters": 9046, "duration": "646s", "condition": "ROUTE_EXISTS"}, {"originIndex": 12, "destinationIndex": 13, "status": {}, "distanceMeters": 4485, "duration": "514s", "condition": "ROUTE_EXISTS"}, {"originIndex": 12, "destinationIndex": 30, "status": {}, "distanceMeters": 6461, "duration": "613s", "condition": "ROUTE_EXISTS"},