{"center": {"lat": 47.369, "lng": 8.5415}, "zoom": 15, "size": 5, "locations": [{"raw_location": {"lat": 47.37478725459239, "lng": 8.532955078125}, "snapped_location": {"lat": 47.3750282, "lng": 8.5328816}, "grid_x": 0, "grid_y": 0, "snap_result_types": ["route"], "snap_result_place_id": "ChIJx7NvGwUKkEcRCmd_0Qdv99Y"}, {"raw_location": {"lat": 47.37478725459239, "lng": 8.5372275390625}, "snapped_location": {"lat": 47.3748219, "lng": 8.5372185}, "grid_x": 1, "grid_y": 0, "snap_result_types": ["route"], "snap_result_place_id": "ChIJ0QaJeQYKkEcRUB6G70Bc6wU"}, {"raw_location": {"lat": 47.37478725459239, "lng": 8.5415}, "snapped_location": {"lat": 47.3747254, "lng": 8.5415454}, "grid_x": 2, "grid_y": 0, "snap_result_types": ["route"], "snap_result_place_id": "ChIJD1cLlwcKkEcRPsR6i0cq0MI"}, {"raw_location": {"lat": 47.37478725459239, "lng": 8.5457724609375}, "snapped_location": {"lat": 47.3749514, "lng": 8.5457229}, "grid_x": 3, "grid_y": 0, "snap_result_types": ["route"], "snap_result_place_id": "ChIJXxKHYKigmkcRdKen1VVq7lM"}, {"raw_location": {"lat": 47.37478725459239, "lng": 8.550044921875}, "snapped_location": {"lat": 47.3746586, "lng": 8.5498847}, "grid_x": 4, "grid_y": 0, "snap_result_types": ["route"], "snap_result_place_id": "ChIJRVWKR6-gmkcRmoIOrmTb3ns"}, {"raw_location": {"lat": 47.371893627296195, "lng": 8.532955078125}, "snapped_location": {"lat": 47.3713967, "lng": 8.532534799999999}, "grid_x": 0, "grid_y": 1, "snap_result_types": ["route"], "snap_result_place_id": "ChIJmbIVdgMKkEcRHJlaAjaKmzM"}, {"raw_location": {"lat": 47.371893627296195, "lng": 8.5372275390625}, "snapped_location": {"lat": 47.371893, "lng": 8.5369717}, "grid_x": 1, "grid_y": 1, "snap_result_types": ["route"], "snap_result_place_id": "ChIJA1-OtAYKkEcRCiX_eVgv1MY"}, {"raw_location": {"lat": 47.371893627296195, "lng": 8.5415}, "snapped_location": {"lat": 47.3718765, "lng": 8.5416493}, "grid_x": 2, "grid_y": 1, "snap_result_types": ["route"], "snap_result_place_id": "ChIJIRxVUQcKkEcR4KyPuekS6ZY"}, {"raw_location": {"lat": 47.371893627296195, "lng": 8.5457724609375}, "snapped_location": {"lat": 47.3718183, "lng": 8.545554899999999}, "grid_x": 3, "grid_y": 1, "snap_result_types": ["route"], "snap_result_place_id": "ChIJaw-BeqmgmkcRTEFOp92b-98"}, {"raw_location": {"lat": 47.371893627296195, "lng": 8.550044921875}, "snapped_location": {"lat": 47.3716624, "lng": 8.550341699999999}, "grid_x": 4, "grid_y": 1, "snap_result_types": ["route"], "snap_result_place_id": "ChIJ6RPfja6gmkcR9hR9CK79cnM"}, {"raw_location": {"lat": 47.369, "lng": 8.532955078125}, "snapped_location": {"lat": 47.36887830000001, "lng": 8.5327288}, "grid_x": 0, "grid_y": 2, "snap_result_types": ["route"], "snap_result_place_id": "ChIJoZu0RAIKkEcRzgs1ma_0eM8"}, {"raw_location": {"lat": 47.369, "lng": 8.5372275390625}, "snapped_location": {"lat": 47.369096, "lng": 8.5366614}, "grid_x": 1, "grid_y": 2, "snap_result_types": ["route"], "snap_result_place_id": "ChIJAVqJogEKkEcRnj2ge0K1Y2s"}, {"raw_location": {"lat": 47.369, "lng": 8.5415}, "snapped_location": {"lat": 47.36909989999999, "lng": 8.541530999999999}, "grid_x": 2, "grid_y": 2, "snap_result_types": ["route"], "snap_result_place_id": "ChIJzRGHgKqgmkcRJCwUgol9H1I"}, {"raw_location": {"lat": 47.369, "lng": 8.5457724609375}, "snapped_location": {"lat": 47.3689875, "lng": 8.5453154}, "grid_x": 3, "grid_y": 2, "snap_result_types": ["route"], "snap_result_place_id": "ChIJj4stoaugmkcRcCdwTIIfuIQ"}, {"raw_location": {"lat": 47.369, "lng": 8.550044921875}, "snapped_location": {"lat": 47.369225, "lng": 8.5500031}, "grid_x": 4, "grid_y": 2, "snap_result_types": ["route"], "snap_result_place_id": "ChIJoTzLTaygmkcRvrs6vTJZRcE"}, {"raw_location": {"lat": 47.366106372703804, "lng": 8.532955078125}, "snapped_location": {"lat": 47.36629860000001, "lng": 8.532796399999999}, "grid_x": 0, "grid_y": 3, "snap_result_types": ["route"], "snap_result_place_id": "ChIJUVVtvvgJkEcRRMNOLjnPQs0"}, {"raw_location": {"lat": 47.366106372703804, "lng": 8.5372275390625}, "snapped_location": {"lat": 47.3661945, "lng": 8.5373085}, "grid_x": 1, "grid_y": 3, "snap_result_types": ["route"], "snap_result_place_id": "ChIJjaVxnf8JkEcRLhB7dwzlEUQ"}, {"raw_location": {"lat": 47.366106372703804, "lng": 8.5415}, "snapped_location": {"lat": 47.366377, "lng": 8.5411433}, "grid_x": 2, "grid_y": 3, "snap_result_types": ["route"], "snap_result_place_id": "ChIJVdrnTVWnmkcRwPY63IpZMG4"}, {"raw_location": {"lat": 47.366106372703804, "lng": 8.5457724609375}, "snapped_location": {"lat": 47.3658459, "lng": 8.5452896}, "grid_x": 3, "grid_y": 3, "snap_result_types": ["route"], "snap_result_place_id": "ChIJp9YCsVSnmkcRduKGrKXk4Pw"}, {"raw_location": {"lat": 47.366106372703804, "lng": 8.550044921875}, "snapped_location": {"lat": 47.3658304, "lng": 8.5500577}, "grid_x": 4, "grid_y": 3, "snap_result_types": ["route"], "snap_result_place_id": "ChIJpzp-zVKnmkcRCieVa3zU4B8"}, {"raw_location": {"lat": 47.36321274540761, "lng": 8.532955078125}, "snapped_location": {"lat": 47.3634527, "lng": 8.5329997}, "grid_x": 0, "grid_y": 4, "snap_result_types": ["route"], "snap_result_place_id": "ChIJRQQYSvkJkEcRyAEI3vC3QrY"}, {"raw_location": {"lat": 47.36321274540761, "lng": 8.5372275390625}, "snapped_location": {"lat": 47.3632031, "lng": 8.5371129}, "grid_x": 1, "grid_y": 4, "snap_result_types": ["route"], "snap_result_place_id": "ChIJkS3vZ_4JkEcR3DkZFrokn-8"}, {"raw_location": {"lat": 47.36321274540761, "lng": 8.5415}, "snapped_location": {"lat": 47.3656878, "lng": 8.5410118}, "grid_x": 2, "grid_y": 4, "snap_result_types": ["route"], "snap_result_place_id": "ChIJ8R5vQ1WnmkcR6s1ZMpJSnno"}, {"raw_location": {"lat": 47.36321274540761, "lng": 8.5457724609375}, "snapped_location": {"lat": 47.3632724, "lng": 8.546822100000002}, "grid_x": 3, "grid_y": 4, "snap_result_types": ["route"], "snap_result_place_id": "ChIJtYtAmVOnmkcRRN_ZBzRFUqE"}, {"raw_location": {"lat": 47.36321274540761, "lng": 8.550044921875}, "snapped_location": {"lat": 47.3632672, "lng": 8.5498048}, "grid_x": 4, "grid_y": 4, "snap_result_types": ["route"], "snap_result_place_id": "ChIJAyagXlKnmkcR7FnzdSqSkw0"}], "route_matrix": [{"originIndex": 0, "destinationIndex": 5, "status": {}, "distanceMeters": 881, "duration": "197s", "condition": "ROUTE_EXISTS"}, {"originIndex": 0, "destinationIndex": 6, "status": {}, "distanceMeters": 1091, "duration": "290s", "condition": "ROUTE_EXISTS"}, {"originIndex": 0, "destinationIndex": 1, "status": {}, "distanceMeters": 579, "duration": "200s", "condition": "ROUTE_EXISTS"}, {"originIndex": 1, "destinationIndex": 6, "status": {}, "distanceMeters": 462, "duration": "145s", "condition": "ROUTE_EXISTS"}, {"originIndex": 1, "destinationIndex": 2, "status": {}, "distanceMeters": 882, "duration": "249s", "condition": "ROUTE_EXISTS"}, {"originIndex": 1, "destinationIndex": 11, "status": {}, "distanceMeters": 793, "duration": "230s", "condition": "ROUTE_EXISTS"}, {"originIndex": 1, "destinationIndex": 7, "status": {}, "distanceMeters": 941, "duration": "311s", "condition": "ROUTE_EXISTS"}, {"originIndex": 1, "destinationIndex": 5, "status": {}, "distanceMeters": 636, "duration": "165s", "condition": "ROUTE_EXISTS"}, {"originIndex": 1, "destinationIndex": 3, "status": {}, "distanceMeters": 1112, "duration": "324s", "condition": "ROUTE_EXISTS"}, {"originIndex": 2, "destinationIndex": 6, "status": {}, "distanceMeters": 789, "duration": "203s", "condition": "ROUTE_EXISTS"}, {"originIndex": 2, "destinationIndex": 12, "status": {}, "distanceMeters": 1700, "duration": "423s", "condition": "ROUTE_EXISTS"}, {"originIndex": 2, "destinationIndex": 8, "status": {}, "distanceMeters": 846, "duration": "240s", "condition": "ROUTE_EXISTS"}, {"originIndex": 2, "destinationIndex": 4, "status": {}, "distanceMeters": 1351, "duration": "306s", "condition": "ROUTE_EXISTS"}, {"originIndex": 2, "destinationIndex": 3, "status": {}, "distanceMeters": 418, "duration": "123s", "condition": "ROUTE_EXISTS"}, {"originIndex": 2, "destinationIndex": 7, "status": {}, "distanceMeters": 1267, "duration": "369s", "condition": "ROUTE_EXISTS"}, {"originIndex": 3, "destinationIndex": 9, "status": {}, "distanceMeters": 811, "duration": "203s", "condition": "ROUTE_EXISTS"}, {"originIndex": 3, "destinationIndex": 4, "status": {}, "distanceMeters": 1001, "duration": "199s", "condition": "ROUTE_EXISTS"}, {"originIndex": 3, "destinationIndex": 7, "status": {}, "distanceMeters": 1697, "duration": "466s", "condition": "ROUTE_EXISTS"}, {"originIndex": 3, "destinationIndex": 8, "status": {}, "distanceMeters": 496, "duration": "133s", "condition": "ROUTE_EXISTS"}, {"originIndex": 4, "destinationIndex": 9, "status": {}, "distanceMeters": 369, "duration": "72s", "condition": "ROUTE_EXISTS"}, {"originIndex": 4, "destinationIndex": 8, "status": {}, "distanceMeters": 835, "duration": "190s", "condition": "ROUTE_EXISTS"}, {"originIndex": 4, "destinationIndex": 14, "status": {}, "distanceMeters": 710, "duration": "169s", "condition": "ROUTE_EXISTS"}, {"originIndex": 5, "destinationIndex": 15, "status": {}, "distanceMeters": 753, "duration": "169s", "condition": "ROUTE_EXISTS"}, {"originIndex": 5, "destinationIndex": 10, "status": {}, "distanceMeters": 510, "duration": "140s", "condition": "ROUTE_EXISTS"}, {"originIndex": 5, "destinationIndex": 6, "status": {}, "distanceMeters": 1002, "duration": "286s", "condition": "ROUTE_EXISTS"}, {"originIndex": 5, "destinationIndex": 11, "status": {}, "distanceMeters": 1028, "duration": "323s", "condition": "ROUTE_EXISTS"}, {"originIndex": 6, "destinationIndex": 11, "status": {}, "distanceMeters": 389, "duration": "154s", "condition": "ROUTE_EXISTS"}, {"originIndex": 6, "destinationIndex": 10, "status": {}, "distanceMeters": 1039, "duration": "297s", "condition": "ROUTE_EXISTS"}, {"originIndex": 6, "destinationIndex": 12, "status": {}, "distanceMeters": 970, "duration": "289s", "condition": "ROUTE_EXISTS"}, {"originIndex": 6, "destinationIndex": 16, "status": {}, "distanceMeters": 966, "duration": "283s", "condition": "ROUTE_EXISTS"}, {"originIndex": 6, "destinationIndex": 7, "status": {}, "distanceMeters": 525, "duration": "194s", "condition": "ROUTE_EXISTS"}, {"originIndex": 7, "destinationIndex": 17, "status": {}, "distanceMeters": 1072, "duration": "352s", "condition": "ROUTE_EXISTS"}, {"originIndex": 7, "destinationIndex": 11, "status": {}, "distanceMeters": 1641, "duration": "462s", "condition": "ROUTE_EXISTS"}, {"originIndex": 7, "destinationIndex": 8, "status": {}, "distanceMeters": 1128, "duration": "342s", "condition": "ROUTE_EXISTS"}, {"originIndex": 7, "destinationIndex": 13, "status": {}, "distanceMeters": 1162, "duration": "338s", "condition": "ROUTE_EXISTS"}, {"originIndex": 7, "destinationIndex": 12, "status": {}, "distanceMeters": 556, "duration": "178s", "condition": "ROUTE_EXISTS"}, {"originIndex": 8, "destinationIndex": 14, "status": {}, "distanceMeters": 741, "duration": "185s", "condition": "ROUTE_EXISTS"}, {"originIndex": 8, "destinationIndex": 9, "status": {}, "distanceMeters": 824, "duration": "229s", "condition": "ROUTE_EXISTS"}, {"originIndex": 8, "destinationIndex": 13, "status": {}, "distanceMeters": 1223, "duration": "313s", "condition": "ROUTE_EXISTS"}, {"originIndex": 8, "destinationIndex": 12, "status": {}, "distanceMeters": 1554, "duration": "388s", "condition": "ROUTE_EXISTS"}, {"originIndex": 9, "destinationIndex": 14, "status": {}, "distanceMeters": 342, "duration": "97s", "condition": "ROUTE_EXISTS"}, {"originIndex": 9, "destinationIndex": 13, "status": {}, "distanceMeters": 830, "duration": "238s", "condition": "ROUTE_EXISTS"}, {"originIndex": 10, "destinationIndex": 15, "status": {}, "distanceMeters": 574, "duration": "138s", "condition": "ROUTE_EXISTS"}, {"originIndex": 10, "destinationIndex": 16, "status": {}, "distanceMeters": 723, "duration": "205s", "condition": "ROUTE_EXISTS"}, {"originIndex": 10, "destinationIndex": 20, "status": {}, "distanceMeters": 1108, "duration": "241s", "condition": "ROUTE_EXISTS"}, {"originIndex": 10, "destinationIndex": 11, "status": {}, "distanceMeters": 518, "duration": "183s", "condition": "ROUTE_EXISTS"}, {"originIndex": 11, "destinationIndex": 15, "status": {}, "distanceMeters": 666, "duration": "184s", "condition": "ROUTE_EXISTS"}, {"originIndex": 11, "destinationIndex": 17, "status": {}, "distanceMeters": 560, "duration": "157s", "condition": "ROUTE_EXISTS"}, {"originIndex": 11, "destinationIndex": 22, "status": {}, "distanceMeters": 1190, "duration": "334s", "condition": "ROUTE_EXISTS"}, {"originIndex": 11, "destinationIndex": 16, "status": {}, "distanceMeters": 657, "duration": "203s", "condition": "ROUTE_EXISTS"}, {"originIndex": 11, "destinationIndex": 12, "status": {}, "distanceMeters": 661, "duration": "209s", "condition": "ROUTE_EXISTS"}, {"originIndex": 12, "destinationIndex": 17, "status": {}, "distanceMeters": 516, "duration": "173s", "condition": "ROUTE_EXISTS"}, {"originIndex": 12, "destinationIndex": 18, "status": {}, "distanceMeters": 911, "duration": "248s", "condition": "ROUTE_EXISTS"}, {"originIndex": 12, "destinationIndex": 14, "status": {}, "distanceMeters": 1906, "duration": "484s", "condition": "ROUTE_EXISTS"}, {"originIndex": 12, "destinationIndex": 22, "status": {}, "distanceMeters": 1521, "duration": "383s", "condition": "ROUTE_EXISTS"}, {"originIndex": 12, "destinationIndex": 13, "status": {}, "distanceMeters": 1228, "duration": "363s", "condition": "ROUTE_EXISTS"}, {"originIndex": 12, "destinationIndex": 16, "status": {}, "distanceMeters": 1246, "duration": "338s", "condition": "ROUTE_EXISTS"}, {"originIndex": 13, "destinationIndex": 17, "status": {}, "distanceMeters": 1023, "duration": "326s", "condition": "ROUTE_EXISTS"}, {"originIndex": 13, "destinationIndex": 18, "status": {}, "distanceMeters": 589, "duration": "175s", "condition": "ROUTE_EXISTS"}, {"originIndex": 13, "destinationIndex": 14, "status": {}, "distanceMeters": 1584, "duration": "411s", "condition": "ROUTE_EXISTS"}, {"originIndex": 13, "destinationIndex": 19, "status": {}, "distanceMeters": 2306, "duration": "531s", "condition": "ROUTE_EXISTS"}, {"originIndex": 13, "destinationIndex": 22, "status": {}, "distanceMeters": 1838, "duration": "451s", "condition": "ROUTE_EXISTS"}, {"originIndex": 14, "destinationIndex": 18, "status": {}, "distanceMeters": 1289, "duration": "294s", "condition": "ROUTE_EXISTS"}, {"originIndex": 14, "destinationIndex": 19, "status": {}, "distanceMeters": 722, "duration": "120s", "condition": "ROUTE_EXISTS"}, {"originIndex": 15, "destinationIndex": 16, "status": {}, "distanceMeters": 491, "duration": "147s", "condition": "ROUTE_EXISTS"}, {"originIndex": 15, "destinationIndex": 21, "status": {}, "distanceMeters": 492, "duration": "128s", "condition": "ROUTE_EXISTS"}, {"originIndex": 15, "destinationIndex": 17, "status": {}, "distanceMeters": 820, "duration": "201s", "condition": "ROUTE_EXISTS"}, {"originIndex": 15, "destinationIndex": 22, "status": {}, "distanceMeters": 875, "duration": "192s", "condition": "ROUTE_EXISTS"}, {"originIndex": 15, "destinationIndex": 20, "status": {}, "distanceMeters": 434, "duration": "118s", "condition": "ROUTE_EXISTS"}, {"originIndex": 16, "destinationIndex": 17, "status": {}, "distanceMeters": 552, "duration": "141s", "condition": "ROUTE_EXISTS"}, {"originIndex": 16, "destinationIndex": 22, "status": {}, "distanceMeters": 1153, "duration": "303s", "condition": "ROUTE_EXISTS"}, {"originIndex": 16, "destinationIndex": 18, "status": {}, "distanceMeters": 947, "duration": "215s", "condition": "ROUTE_EXISTS"}, {"originIndex": 16, "destinationIndex": 21, "status": {}, "distanceMeters": 444, "duration": "125s", "condition": "ROUTE_EXISTS"}, {"originIndex": 16, "destinationIndex": 20, "status": {}, "distanceMeters": 711, "duration": "178s", "condition": "ROUTE_EXISTS"}, {"originIndex": 17, "destinationIndex": 23, "status": {}, "distanceMeters": 704, "duration": "108s", "condition": "ROUTE_EXISTS"}, {"originIndex": 17, "destinationIndex": 18, "status": {}, "distanceMeters": 396, "duration": "74s", "condition": "ROUTE_EXISTS"}, {"originIndex": 17, "destinationIndex": 21, "status": {}, "distanceMeters": 601, "duration": "117s", "condition": "ROUTE_EXISTS"}, {"originIndex": 17, "destinationIndex": 22, "status": {}, "distanceMeters": 1310, "duration": "296s", "condition": "ROUTE_EXISTS"}, {"originIndex": 18, "destinationIndex": 24, "status": {}, "distanceMeters": 624, "duration": "96s", "condition": "ROUTE_EXISTS"}, {"originIndex": 18, "destinationIndex": 23, "status": {}, "distanceMeters": 309, "duration": "34s", "condition": "ROUTE_EXISTS"}, {"originIndex": 18, "destinationIndex": 22, "status": {}, "distanceMeters": 1586, "duration": "352s", "condition": "ROUTE_EXISTS"}, {"originIndex": 18, "destinationIndex": 19, "status": {}, "distanceMeters": 1838, "duration": "397s", "condition": "ROUTE_EXISTS"}, {"originIndex": 19, "destinationIndex": 24, "status": {}, "distanceMeters": 517, "duration": "129s", "condition": "ROUTE_EXISTS"}, {"originIndex": 19, "destinationIndex": 23, "status": {}, "distanceMeters": 916, "duration": "288s", "condition": "ROUTE_EXISTS"}, {"originIndex": 20, "destinationIndex": 21, "status": {}, "distanceMeters": 239, "duration": "68s", "condition": "ROUTE_EXISTS"}, {"originIndex": 21, "destinationIndex": 22, "status": {}, "distanceMeters": 400, "duration": "71s", "condition": "ROUTE_EXISTS"}, {"originIndex": 22, "destinationIndex": 23, "status": {}, "distanceMeters": 747, "duration": "117s", "condition": "ROUTE_EXISTS"}, {"originIndex": 23, "destinationIndex": 24, "status": {}, "distanceMeters": 315, "duration": "62s", "condition": "ROUTE_EXISTS"}]}