{"center": {"lat": 47.369, "lng": 8.5415}, "zoom": 15, "size": 5, "locations": [{"raw_location": {"lat": 47.37478725459239, "lng": 8.532955078125}, "snapped_location": {"lat": 47.3750282, "lng": 8.5328816}, "grid_x": 0, "grid_y": 0, "snap_result_types": ["route"], "snap_result_place_id": "ChIJx7NvGwUKkEcRCmd_0Qdv99Y"}, {"raw_location": {"lat": 47.37478725459239, "lng": 8.5372275390625}, "snapped_location": {"lat": 47.3748219, "lng": 8.5372185}, "grid_x": 1, "grid_y": 0, "snap_result_types": ["route"], "snap_result_place_id": "ChIJ0QaJeQYKkEcRUB6G70Bc6wU"}, {"raw_location": {"lat": 47.37478725459239, "lng": 8.5415}, "snapped_location": {"lat": 47.3747254, "lng": 8.5415454}, "grid_x": 2, "grid_y": 0, "snap_result_types": ["route"], "snap_result_place_id": "ChIJD1cLlwcKkEcRPsR6i0cq0MI"}, {"raw_location": {"lat": 47.37478725459239, "lng": 8.5457724609375}, "snapped_location": {"lat": 47.3749514, "lng": 8.5457229}, "grid_x": 3, "grid_y": 0, "snap_result_types": ["route"], "snap_result_place_id": "ChIJXxKHYKigmkcRdKen1VVq7lM"}, {"raw_location": {"lat": 47.37478725459239, "lng": 8.550044921875}, "snapped_location": {"lat": 47.3746586, "lng": 8.5498847}, "grid_x": 4, "grid_y": 0, "snap_result_types": ["route"], "snap_result_place_id": "ChIJRVWKR6-gmkcRmoIOrmTb3ns"}, {"raw_location": {"lat": 47.371893627296195, "lng": 8.532955078125}, "snapped_location": {"lat": 47.3713967, "lng": 8.532534799999999}, "grid_x": 0, "grid_y": 1, "snap_result_types": ["route"], "snap_result_place_id": "ChIJmbIVdgMKkEcRHJlaAjaKmzM"}, {"raw_location": {"lat": 47.371893627296195, "lng": 8.5372275390625}, "snapped_location": {"lat": 47.371893, "lng": 8.5369717}, "grid_x": 1, "grid_y": 1, "snap_result_types": ["route"], "snap_result_place_id": "ChIJA1-OtAYKkEcRCiX_eVgv1MY"}, {"raw_location": {"lat": 47.371893627296195, "lng": 8.5415}, "snapped_location": {"lat": 47.3718765, "lng": 8.5416493}, "grid_x": 2, "grid_y": 1, "snap_result_types": ["route"], "snap_result_place_id": "ChIJIRxVUQcKkEcR4KyPuekS6ZY"}, {"raw_location": {"lat": 47.371893627296195, "lng": 8.5457724609375}, "snapped_location": {"lat": 47.3718183, "lng": 8.545554899999999}, "grid_x": 3, "grid_y": 1, "snap_result_types": ["route"], "snap_result_place_id": "ChIJaw-BeqmgmkcRTEFOp92b-98"}, {"raw_location": {"lat": 47.371893627296195, "lng": 8.550044921875}, "snapped_location": {"lat": 47.3716624, "lng": 8.550341699999999}, "grid_x": 4, "grid_y": 1, "snap_result_types": ["route"], "snap_result_place_id": "ChIJ6RPfja6gmkcR9hR9CK79cnM"}, {"raw_location": {"lat": 47.369, "lng": 8.532955078125}, "snapped_location": {"lat": 47.36887830000001, "lng": 8.5327288}, "grid_x": 0, "grid_y": 2, "snap_result_types": ["route"], "snap_result_place_id": "ChIJoZu0RAIKkEcRzgs1ma_0eM8"}, {"raw_location": {"lat": 47.369, "lng": 8.5372275390625}, "snapped_location": {"lat": 47.369096, "lng": 8.5366614}, "grid_x": 1, "grid_y": 2, "snap_result_types": ["route"], "snap_result_place_id": "ChIJAVqJogEKkEcRnj2ge0K1Y2s"}, {"raw_location": {"lat": 47.369, "lng": 8.5415}, "snapped_location": {"lat": 47.36909989999999, "lng": 8.541530999999999}, "grid_x": 2, "grid_y": 2, "snap_result_types": ["route"], "snap_result_place_id": "ChIJzRGHgKqgmkcRJCwUgol9H1I"}, {"raw_location": {"lat": 47.369, "lng": 8.5457724609375}, "snapped_location": {"lat": 47.3689875, "lng": 8.5453154}, "grid_x": 3, "grid_y": 2, "snap_result_types": ["route"], "snap_result_place_id": "ChIJj4stoaugmkcRcCdwTIIfuIQ"}, {"raw_location": {"lat": 47.369, "lng": 8.550044921875}, "snapped_location": {"lat": 47.369225, "lng": 8.5500031}, "grid_x": 4, "grid_y": 2, "snap_result_types": ["route"], "snap_result_place_id": "ChIJoTzLTaygmkcRvrs6vTJZRcE"}, {"raw_location": {"lat": 47.366106372703804, "lng": 8.532955078125}, "snapped_location": {"lat": 47.36629860000001, "lng": 8.532796399999999}, "grid_x": 0, "grid_y": 3, "snap_result_types": ["route"], "snap_result_place_id": "ChIJUVVtvvgJkEcRRMNOLjnPQs0"}, {"raw_location": {"lat": 47.366106372703804, "lng": 8.5372275390625}, "snapped_location": {"lat": 47.3661945, "lng": 8.5373085}, "grid_x": 1, "grid_y": 3, "snap_result_types": ["route"], "snap_result_place_id": "ChIJjaVxnf8JkEcRLhB7dwzlEUQ"}, {"raw_location": {"lat": 47.366106372703804, "lng": 8.5415}, "snapped_location": {"lat": 47.366377, "lng": 8.5411433}, "grid_x": 2, "grid_y": 3, "snap_result_types": ["route"], "snap_result_place_id": "ChIJVdrnTVWnmkcRwPY63IpZMG4"}, {"raw_location": {"lat": 47.366106372703804, "lng": 8.5457724609375}, "snapped_location": {"lat": 47.3658459, "lng": 8.5452896}, "grid_x": 3, "grid_y": 3, "snap_result_types": ["route"], "snap_result_place_id": "ChIJp9YCsVSnmkcRduKGrKXk4Pw"}, {"raw_location": {"lat": 47.366106372703804, "lng": 8.550044921875}, "snapped_location": {"lat": 47.3658304, "lng": 8.5500577}, "grid_x": 4, "grid_y": 3, "snap_result_types": ["route"], "snap_result_place_id": "ChIJpzp-zVKnmkcRCieVa3zU4B8"}, {"raw_location": {"lat": 47.36321274540761, "lng": 8.532955078125}, "snapped_location": {"lat": 47.3634527, "lng": 8.5329997}, "grid_x": 0, "grid_y": 4, "snap_result_types": ["route"], "snap_result_place_id": "ChIJRQQYSvkJkEcRyAEI3vC3QrY"}, {"raw_location": {"lat": 47.36321274540761, "lng": 8.5372275390625}, "snapped_location": {"lat": 47.3632031, "lng": 8.5371129}, "grid_x": 1, "grid_y": 4, "snap_result_types": ["route"], "snap_result_place_id": "ChIJkS3vZ_4JkEcR3DkZFrokn-8"}, {"raw_location": {"lat": 47.36321274540761, "lng": 8.5415}, "snapped_location": {"lat": 47.3656878, "lng": 8.5410118}, "grid_x": 2, "grid_y": 4, "snap_result_types": ["route"], "snap_result_place_id": "ChIJ8R5vQ1WnmkcR6s1ZMpJSnno"}, {"raw_location": {"lat": 47.36321274540761, "lng": 8.5457724609375}, "snapped_location": {"lat": 47.3632724, "lng": 8.546822100000002}, "grid_x": 3, "grid_y": 4, "snap_result_types": ["route"], "snap_result_place_id": "ChIJtYtAmVOnmkcRRN_ZBzRFUqE"}, {"raw_location": {"lat": 47.36321274540761, "lng": 8.550044921875}, "snapped_location": {"lat": 47.3632672, "lng": 8.5498048}, "grid_x": 4, "grid_y": 4, "snap_result_types": ["route"], "snap_result_place_id": "ChIJAyagXlKnmkcR7FnzdSqSkw0"}], "route_matrix": [{"originIndex": 0, "destinationIndex": 0, "status": {}, "distanceMeters": 778, "duration": "209s", "condition": "ROUTE_EXISTS"}, {"originIndex": 0, "destinationIndex": 0, "status": {}, "distanceMeters": 911, "duration": "262s", "condition": "ROUTE_EXISTS"}, {"originIndex": 0, "destinationIndex": 0, "status": {}, "distanceMeters": 1264, "duration": "358s", "condition": "ROUTE_EXISTS"}, {"originIndex": 0, "destinationIndex": 1, "status": {}, "distanceMeters": 765, "duration": "189s", "condition": "ROUTE_EXISTS"}, {"originIndex": 0, "destinationIndex": 0, "status": {}, "distanceMeters": 1538, "duration": "362s", "condition": "ROUTE_EXISTS"}, {"originIndex": 0, "destinationIndex": 1, "status": {}, "distanceMeters": 841, "duration": "178s", "condition": "ROUTE_EXISTS"}, {"originIndex": 0, "destinationIndex": 1, "status": {}, "distanceMeters": 1488, "duration": "459s", "condition": "ROUTE_EXISTS"}, {"originIndex": 0, "destinationIndex": 0, "status": {}, "distanceMeters": 1248, "duration": "297s", "condition": "ROUTE_EXISTS"}, {"originIndex": 0, "destinationIndex": 0, "status": {}, "distanceMeters": 720, "duration": "221s", "condition": "ROUTE_EXISTS"}, {"originIndex": 0, "destinationIndex": 3, "status": {}, "distanceMeters": 578, "duration": "178s", "condition": "ROUTE_EXISTS"}, {"originIndex": 0, "destinationIndex": 1, "status": {}, "distanceMeters": 668, "duration": "235s", "condition": "ROUTE_EXISTS"}, {"originIndex": 0, "destinationIndex": 2, "status": {}, "distanceMeters": 794, "duration": "196s", "condition": "ROUTE_EXISTS"}, {"originIndex": 0, "destinationIndex": 2, "status": {}, "distanceMeters": 700, "duration": "225s", "condition": "ROUTE_EXISTS"}, {"originIndex": 0, "destinationIndex": 1, "status": {}, "distanceMeters": 933, "duration": "267s", "condition": "ROUTE_EXISTS"}, {"originIndex": 0, "destinationIndex": 0, "status": {}, "distanceMeters": 1432, "duration": "435s", "condition": "ROUTE_EXISTS"}, {"originIndex": 0, "destinationIndex": 3, "status": {}, "distanceMeters": 1310, "duration": "377s", "condition": "ROUTE_EXISTS"}, {"originIndex": 0, "destinationIndex": 2, "status": {}, "distanceMeters": 1014, "duration": "226s", "condition": "ROUTE_EXISTS"}, {"originIndex": 0, "destinationIndex": 1, "status": {}, "distanceMeters": 1053, "duration": "371s", "condition": "ROUTE_EXISTS"}, {"originIndex": 0, "destinationIndex": 0, "status": {}, "distanceMeters": 1286, "duration": "413s", "condition": "ROUTE_EXISTS"}, {"originIndex": 0, "destinationIndex": 3, "status": {}, "distanceMeters": 1710, "duration": "493s", "condition": "ROUTE_EXISTS"}, {"originIndex": 0, "destinationIndex": 0, "status": {}, "distanceMeters": 735, "duration": "188s", "condition": "ROUTE_EXISTS"}, {"originIndex": 0, "destinationIndex": 1, "status": {}, "distanceMeters": 361, "duration": "60s", "condition": "ROUTE_EXISTS"}, {"originIndex": 0, "destinationIndex": 2, "status": {}, "distanceMeters": 557, "duration": "159s", "condition": "ROUTE_EXISTS"}, {"originIndex": 0, "destinationIndex": 1, "status": {}, "distanceMeters": 493, "duration": "147s", "condition": "ROUTE_EXISTS"}, {"originIndex": 0, "destinationIndex": 0, "status": {}, "distanceMeters": 940, "duration": "243s", "condition": "ROUTE_EXISTS"}, {"originIndex": 0, "destinationIndex": 0, "status": {}, "distanceMeters": 883, "duration": "301s", "condition": "ROUTE_EXISTS"}, {"originIndex": 0, "destinationIndex": 1, "status": {}, "distanceMeters": 793, "duration": "244s", "condition": "ROUTE_EXISTS"}, {"originIndex": 0, "destinationIndex": 4, "status": {}, "distanceMeters": 730, "duration": "218s", "condition": "ROUTE_EXISTS"}, {"originIndex": 0, "destinationIndex": 2, "status": {}, "distanceMeters": 398, "duration": "128s", "condition": "ROUTE_EXISTS"}, {"originIndex": 0, "destinationIndex": 3, "status": {}, "distanceMeters": 876, "duration": "310s", "condition": "ROUTE_EXISTS"}, {"originIndex": 0, "destinationIndex": 1, "status": {}, "distanceMeters": 950, "duration": "274s", "condition": "ROUTE_EXISTS"}, {"originIndex": 0, "destinationIndex": 4, "status": {}, "distanceMeters": 807, "duration": "259s", "condition": "ROUTE_EXISTS"}, {"originIndex": 0, "destinationIndex": 0, "status": {}, "distanceMeters": 1790, "duration": "471s", "condition": "ROUTE_EXISTS"}, {"originIndex": 0, "destinationIndex": 3, "status": {}, "distanceMeters": 1653, "duration": "466s", "condition": "ROUTE_EXISTS"}, {"originIndex": 0, "destinationIndex": 2, "status": {}, "distanceMeters": 664, "duration": "279s", "condition": "ROUTE_EXISTS"}, {"originIndex": 0, "destinationIndex": 0, "status": {}, "distanceMeters": 664, "duration": "257s", "condition": "ROUTE_EXISTS"}, {"originIndex": 0, "destinationIndex": 1, "status": {}, "distanceMeters": 1331, "duration": "393s", "condition": "ROUTE_EXISTS"}, {"originIndex": 0, "destinationIndex": 3, "status": {}, "distanceMeters": 507, "duration": "152s", "condition": "ROUTE_EXISTS"}, {"originIndex": 0, "destinationIndex": 2, "status": {}, "distanceMeters": 1292, "duration": "352s", "condition": "ROUTE_EXISTS"}, {"originIndex": 0, "destinationIndex": 2, "status": {}, "distanceMeters": 594, "duration": "135s", "condition": "ROUTE_EXISTS"}, {"originIndex": 0, "destinationIndex": 0, "status": {}, "distanceMeters": 736, "duration": "151s", "condition": "ROUTE_EXISTS"}, {"originIndex": 0, "destinationIndex": 4, "status": {}, "distanceMeters": 1116, "duration": "283s", "condition": "ROUTE_EXISTS"}, {"originIndex": 0, "destinationIndex": 3, "status": {}, "distanceMeters": 1446, "duration": "357s", "condition": "ROUTE_EXISTS"}, {"originIndex": 0, "destinationIndex": 1, "status": {}, "distanceMeters": 555, "duration": "143s", "condition": "ROUTE_EXISTS"}, {"originIndex": 0, "destinationIndex": 2, "status": {}, "distanceMeters": 1074, "duration": "290s", "condition": "ROUTE_EXISTS"}, {"originIndex": 0, "destinationIndex": 0, "status": {}, "distanceMeters": 1379, "duration": "298s", "condition": "ROUTE_EXISTS"}, {"originIndex": 0, "destinationIndex": 1, "status": {}, "distanceMeters": 509, "duration": "143s", "condition": "ROUTE_EXISTS"}, {"originIndex": 0, "destinationIndex": 2, "status": {}, "distanceMeters": 806, "duration": "230s", "condition": "ROUTE_EXISTS"}, {"originIndex": 0, "destinationIndex": 3, "status": {}, "distanceMeters": 653, "duration": "186s", "condition": "ROUTE_EXISTS"}, {"originIndex": 0, "destinationIndex": 4, "status": {}, "distanceMeters": 670, "duration": "200s", "condition": "ROUTE_EXISTS"}, {"originIndex": 0, "destinationIndex": 1, "status": {}, "distanceMeters": 735, "duration": "234s", "condition": "ROUTE_EXISTS"}, {"originIndex": 0, "destinationIndex": 0, "status": {}, "distanceMeters": 949, "duration": "245s", "condition": "ROUTE_EXISTS"}, {"originIndex": 0, "destinationIndex": 4, "status": {}, "distanceMeters": 1150, "duration": "260s", "condition": "ROUTE_EXISTS"}, {"originIndex": 0, "destinationIndex": 1, "status": {}, "distanceMeters": 841, "duration": "264s", "condition": "ROUTE_EXISTS"}, {"originIndex": 0, "destinationIndex": 3, "status": {}, "distanceMeters": 713, "duration": "190s", "condition": "ROUTE_EXISTS"}, {"originIndex": 0, "destinationIndex": 0, "status": {}, "distanceMeters": 692, "duration": "273s", "condition": "ROUTE_EXISTS"}, {"originIndex": 0, "destinationIndex": 2, "status": {}, "distanceMeters": 372, "duration": "112s", "condition": "ROUTE_EXISTS"}, {"originIndex": 0, "destinationIndex": 5, "status": {}, "distanceMeters": 1035, "duration": "251s", "condition": "ROUTE_EXISTS"}, {"originIndex": 0, "destinationIndex": 3, "status": {}, "distanceMeters": 1311, "duration": "307s", "condition": "ROUTE_EXISTS"}, {"originIndex": 0, "destinationIndex": 1, "status": {}, "distanceMeters": 438, "duration": "156s", "condition": "ROUTE_EXISTS"}, {"originIndex": 0, "destinationIndex": 4, "status": {}, "distanceMeters": 949, "duration": "281s", "condition": "ROUTE_EXISTS"}, {"originIndex": 0, "destinationIndex": 0, "status": {}, "distanceMeters": 648, "duration": "172s", "condition": "ROUTE_EXISTS"}, {"originIndex": 0, "destinationIndex": 2, "status": {}, "distanceMeters": 1116, "duration": "277s", "condition": "ROUTE_EXISTS"}, {"originIndex": 0, "destinationIndex": 2, "status": {}, "distanceMeters": 567, "duration": "174s", "condition": "ROUTE_EXISTS"}, {"originIndex": 0, "destinationIndex": 1, "status": {}, "distanceMeters": 1701, "duration": "381s", "condition": "ROUTE_EXISTS"}, {"originIndex": 0, "destinationIndex": 0, "status": {}, "distanceMeters": 1005, "duration": "330s", "condition": "ROUTE_EXISTS"}, {"originIndex": 0, "destinationIndex": 1, "status": {}, "distanceMeters": 417, "duration": "108s", "condition": "ROUTE_EXISTS"}, {"originIndex": 0, "destinationIndex": 2, "status": {}, "distanceMeters": 908, "duration": "255s", "condition": "ROUTE_EXISTS"}, {"originIndex": 0, "destinationIndex": 0, "status": {}, "distanceMeters": 926, "duration": "250s", "condition": "ROUTE_EXISTS"}, {"originIndex": 0, "destinationIndex": 0, "status": {}, "distanceMeters": 677, "duration": "160s", "condition": "ROUTE_EXISTS"}, {"originIndex": 0, "destinationIndex": 2, "status": {}, "distanceMeters": 449, "duration": "84s", "condition": "ROUTE_EXISTS"}, {"originIndex": 0, "destinationIndex": 1, "status": {}, "distanceMeters": 951, "duration": "239s", "condition": "ROUTE_EXISTS"}, {"originIndex": 0, "destinationIndex": 3, "status": {}, "distanceMeters": 261, "duration": "52s", "condition": "ROUTE_EXISTS"}, {"originIndex": 0, "destinationIndex": 1, "status": {}, "distanceMeters": 415, "duration": "121s", "condition": "ROUTE_EXISTS"}, {"originIndex": 0, "destinationIndex": 3, "status": {}, "distanceMeters": 1193, "duration": "270s", "condition": "ROUTE_EXISTS"}, {"originIndex": 0, "destinationIndex": 2, "status": {}, "distanceMeters": 755, "duration": "199s", "condition": "ROUTE_EXISTS"}, {"originIndex": 0, "destinationIndex": 5, "status": {}, "distanceMeters": 43, "duration": "9s", "condition": "ROUTE_EXISTS"}, {"originIndex": 0, "destinationIndex": 7, "status": {}, "distanceMeters": 644, "duration": "126s", "condition": "ROUTE_EXISTS"}, {"originIndex": 0, "destinationIndex": 6, "status": {}, "distanceMeters": 438, "duration": "84s", "condition": "ROUTE_EXISTS"}, {"originIndex": 0, "destinationIndex": 4, "status": {}, "distanceMeters": 1077, "duration": "260s", "condition": "ROUTE_EXISTS"}, {"originIndex": 0, "destinationIndex": 0, "status": {}, "distanceMeters": 884, "duration": "273s", "condition": "ROUTE_EXISTS"}, {"originIndex": 0, "destinationIndex": 1, "status": {}, "distanceMeters": 309, "duration": "71s", "condition": "ROUTE_EXISTS"}, {"originIndex": 0, "destinationIndex": 0, "status": {}, "distanceMeters": 1257, "duration": "352s", "condition": "ROUTE_EXISTS"}, {"originIndex": 0, "destinationIndex": 3, "status": {}, "distanceMeters": 1895, "duration": "423s", "condition": "ROUTE_EXISTS"}, {"originIndex": 0, "destinationIndex": 2, "status": {}, "distanceMeters": 1999, "duration": "405s", "condition": "ROUTE_EXISTS"}, {"originIndex": 0, "destinationIndex": 2, "status": {}, "distanceMeters": 1393, "duration": "284s", "condition": "ROUTE_EXISTS"}, {"originIndex": 0, "destinationIndex": 0, "status": {}, "distanceMeters": 933, "duration": "241s", "condition": "ROUTE_EXISTS"}, {"originIndex": 0, "destinationIndex": 1, "status": {}, "distanceMeters": 1684, "duration": "343s", "condition": "ROUTE_EXISTS"}]}