{"center": {"lat": -16.480477385679055, "lng": -68.13527992447533}, "zoom": 14, "size": 19, "size_pixels": 640, "locations": [{"raw_location": {"lat": -16.45425701392109, "lng": -68.16262367447533}, "snapped_location": {"lat": -16.4539768, "lng": -68.16196}, "grid_x": 0, "grid_y": 0, "snap_result_types": ["route"], "snap_result_place_id": "ChIJu35wFxTgXpER0GpSEiWK9lo"}, {"raw_location": {"lat": -16.45425701392109, "lng": -68.15958548003088}, "snapped_location": {"lat": -16.4539635, "lng": -68.1593552}, "grid_x": 1, "grid_y": 0, "snap_result_types": ["route"], "snap_result_place_id": "ChIJt-5HwBbgXpERmIstss3H8XA"}, {"raw_location": {"lat": -16.45425701392109, "lng": -68.15654728558644}, "snapped_location": {"lat": -16.4543683, "lng": -68.1566316}, "grid_x": 2, "grid_y": 0, "snap_result_types": ["route"], "snap_result_place_id": "ChIJmzQoSBfgXpER1g97Fll6vHM"}, {"raw_location": {"lat": -16.45425701392109, "lng": -68.153509091142}, "snapped_location": {"lat": -16.4537593, "lng": -68.15332180000001}, "grid_x": 3, "grid_y": 0, "snap_result_types": ["route"], "snap_result_place_id": "ChIJMXCLjRngXpEROnflMQuXCag"}, {"raw_location": {"lat": -16.45425701392109, "lng": -68.15047089669756}, "snapped_location": {"lat": -16.4547256, "lng": -68.15047179999999}, "grid_x": 4, "grid_y": 0, "snap_result_types": ["route"], "snap_result_place_id": "ChIJx0Re6hvgXpERFvz9zc-VLfs"}, {"raw_location": {"lat": -16.45425701392109, "lng": -68.1474327022531}, "snapped_location": {"lat": -16.4544718, "lng": -68.1476264}, "grid_x": 5, "grid_y": 0, "snap_result_types": ["route"], "snap_result_place_id": "ChIJY1lmGBzgXpERXL8j4xfyFPo"}, {"raw_location": {"lat": -16.45425701392109, "lng": -68.14439450780866}, "snapped_location": {"lat": -16.4540754, "lng": -68.1450124}, "grid_x": 6, "grid_y": 0, "snap_result_types": ["route"], "snap_result_place_id": "ChIJdxzR2R3gXpERnmH7nLubGIc"}, {"raw_location": {"lat": -16.45425701392109, "lng": -68.14135631336421}, "snapped_location": {"lat": -16.4530657, "lng": -68.1399706}, "grid_x": 7, "grid_y": 0, "snap_result_types": ["route"], "snap_result_place_id": "ChIJjzt41eMfX5ERonvjlXzBqS8"}, {"raw_location": {"lat": -16.45425701392109, "lng": -68.13831811891977}, "snapped_location": {"lat": -16.4543616, "lng": -68.1371696}, "grid_x": 8, "grid_y": 0, "snap_result_types": ["route"], "snap_result_place_id": "ChIJKVA2iOMfX5ERmiOBIyrJns4"}, {"raw_location": {"lat": -16.45425701392109, "lng": -68.13527992447533}, "snapped_location": {"lat": -16.4535333, "lng": -68.1351303}, "grid_x": 9, "grid_y": 0, "snap_result_types": ["route"], "snap_result_place_id": "ChIJJ3aCOeQfX5ERtFSMyTxbmzw"}, {"raw_location": {"lat": -16.45425701392109, "lng": -68.13224173003088}, "snapped_location": {"lat": -16.4541938, "lng": -68.132258}, "grid_x": 10, "grid_y": 0, "snap_result_types": ["route"], "snap_result_place_id": "ChIJ_zCjkOUfX5ERRIxEy0C57eo"}, {"raw_location": {"lat": -16.45425701392109, "lng": -68.12920353558644}, "snapped_location": {"lat": -16.4543646, "lng": -68.1288458}, "grid_x": 11, "grid_y": 0, "snap_result_types": ["route"], "snap_result_place_id": "ChIJXRhFBu8fX5ERUALKLONem8o"}, {"raw_location": {"lat": -16.45425701392109, "lng": -68.126165341142}, "snapped_location": {"lat": -16.454356, "lng": -68.1280682}, "grid_x": 12, "grid_y": 0, "snap_result_types": ["route"], "snap_result_place_id": "ChIJDaO0_-4fX5ERdrRtoHinCGg"}, {"raw_location": {"lat": -16.45425701392109, "lng": -68.12312714669756}, "snapped_location": {"lat": -16.4543945, "lng": -68.1224852}, "grid_x": 13, "grid_y": 0, "snap_result_types": ["route"], "snap_result_place_id": "ChIJn2ypqe0fX5ERNnzQaqI_m2Q"}, {"raw_location": {"lat": -16.45425701392109, "lng": -68.1200889522531}, "snapped_location": {"lat": -16.4562539, "lng": -68.11960169999999}, "grid_x": 14, "grid_y": 0, "snap_result_types": ["route"], "snap_result_place_id": "ChIJqYECVu0fX5ER_lviAEJCGNI"}, {"raw_location": {"lat": -16.45425701392109, "lng": -68.11705075780866}, "snapped_location": {"lat": -16.4534414, "lng": -68.1172022}, "grid_x": 15, "grid_y": 0, "snap_result_types": ["route"], "snap_result_place_id": "ChIJ46exApMfX5ERktWeh_ZY6N4"}, {"raw_location": {"lat": -16.45425701392109, "lng": -68.11401256336421}, "snapped_location": {"lat": -16.452921, "lng": -68.11242}, "grid_x": 16, "grid_y": 0, "snap_result_types": ["route"], "snap_result_place_id": "ChIJCfNwhZEfX5ER2h95x80YLhE"}, {"raw_location": {"lat": -16.45425701392109, "lng": -68.11097436891977}, "snapped_location": {"lat": -16.4540009, "lng": -68.11079389999999}, "grid_x": 17, "grid_y": 0, "snap_result_types": ["route"], "snap_result_place_id": "ChIJKborppEfX5ERYjcWFiYAOTI"}, {"raw_location": {"lat": -16.45425701392109, "lng": -68.10793617447533}, "snapped_location": {"lat": -16.4528414, "lng": -68.1063059}, "grid_x": 18, "grid_y": 0, "snap_result_types": ["route"], "snap_result_place_id": "ChIJw0jksZsfX5ER8kPOpKRkqC0"}, {"raw_location": {"lat": -16.457170388560865, "lng": -68.16262367447533}, "snapped_location": {"lat": -16.4572364, "lng": -68.1622804}, "grid_x": 0, "grid_y": 1, "snap_result_types": ["route"], "snap_result_place_id": "ChIJE-7cxhPgXpERflcppTogd5E"}, {"raw_location": {"lat": -16.457170388560865, "lng": -68.15958548003088}, "snapped_location": {"lat": -16.4580887, "lng": -68.1600964}, "grid_x": 1, "grid_y": 1, "snap_result_types": ["route"], "snap_result_place_id": "ChIJ-eI3nRHgXpERZo4L3m92qak"}, {"raw_location": {"lat": -16.457170388560865, "lng": -68.15654728558644}, "snapped_location": {"lat": -16.4571675, "lng": -68.1564781}, "grid_x": 2, "grid_y": 1, "snap_result_types": ["route"], "snap_result_place_id": "ChIJC2K9jBDgXpERum7Eyw-G35c"}, {"raw_location": {"lat": -16.457170388560865, "lng": -68.153509091142}, "snapped_location": {"lat": -16.4571014, "lng": -68.1534109}, "grid_x": 3, "grid_y": 1, "snap_result_types": ["route"], "snap_result_place_id": "ChIJsdDk9RrgXpERwKgbZ7zngHc"}, {"raw_location": {"lat": -16.457170388560865, "lng": -68.15047089669756}, "snapped_location": {"lat": -16.4582101, "lng": -68.1503394}, "grid_x": 4, "grid_y": 1, "snap_result_types": ["route"], "snap_result_place_id": "ChIJQyMbQRvgXpERWoUNMp0RI0M"}, {"raw_location": {"lat": -16.457170388560865, "lng": -68.1474327022531}, "snapped_location": {"lat": -16.4573508, "lng": -68.1473938}, "grid_x": 5, "grid_y": 1, "snap_result_types": ["route"], "snap_result_place_id": "ChIJdyyB7RzgXpERzPXqo6_YCVw"}, {"raw_location": {"lat": -16.457170388560865, "lng": -68.14439450780866}, "snapped_location": {"lat": -16.4585922, "lng": -68.1451258}, "grid_x": 6, "grid_y": 1, "snap_result_types": ["route"], "snap_result_place_id": "ChIJeRXwLR3gXpERHu33EKr00JA"}, {"raw_location": {"lat": -16.457170388560865, "lng": -68.14135631336421}, "snapped_location": {"lat": -16.4572157, "lng": -68.14122259999999}, "grid_x": 7, "grid_y": 1, "snap_result_types": ["route"], "snap_result_place_id": "ChIJl2W7weIfX5ER2FDEwd09Cw0"}, {"raw_location": {"lat": -16.457170388560865, "lng": -68.13831811891977}, "snapped_location": {"lat": -16.4572984, "lng": -68.1385135}, "grid_x": 8, "grid_y": 1, "snap_result_types": ["route"], "snap_result_place_id": "ChIJOwkfQeMfX5ERvgGEsoqzMH8"}, {"raw_location": {"lat": -16.457170388560865, "lng": -68.13527992447533}, "snapped_location": {"lat": -16.4586458, "lng": -68.1356021}, "grid_x": 9, "grid_y": 1, "snap_result_types": ["route"], "snap_result_place_id": "ChIJKw8is-QfX5ERHH7p2lAD8ho"}, {"raw_location": {"lat": -16.457170388560865, "lng": -68.13224173003088}, "snapped_location": {"lat": -16.4570272, "lng": -68.1323003}, "grid_x": 10, "grid_y": 1, "snap_result_types": ["route"], "snap_result_place_id": "ChIJQVC9y_ofX5ERuFIigQeFJFA"}, {"raw_location": {"lat": -16.457170388560865, "lng": -68.12920353558644}, "snapped_location": {"lat": -16.4565644, "lng": -68.1299212}, "grid_x": 11, "grid_y": 1, "snap_result_types": ["route"], "snap_result_place_id": "ChIJBZbmHvAfX5ERdoVcpJTSm5k"}, {"raw_location": {"lat": -16.457170388560865, "lng": -68.126165341142}, "snapped_location": {"lat": -16.458595, "lng": -68.1254787}, "grid_x": 12, "grid_y": 1, "snap_result_types": ["route"], "snap_result_place_id": "ChIJ5yt2ivEfX5ERAmkm1M4WLj8"}, {"raw_location": {"lat": -16.457170388560865, "lng": -68.12312714669756}, "snapped_location": {"lat": -16.4559324, "lng": -68.12198479999999}, "grid_x": 13, "grid_y": 1, "snap_result_types": ["route"], "snap_result_place_id": "ChIJq3jjee0fX5ERAFCaX2DJjAE"}, {"raw_location": {"lat": -16.457170388560865, "lng": -68.1200889522531}, "snapped_location": {"lat": -16.4572575, "lng": -68.119978}, "grid_x": 14, "grid_y": 1, "snap_result_types": ["route"], "snap_result_place_id": "ChIJc9aJsPIfX5ERujokBmQm4Wk"}, {"raw_location": {"lat": -16.457170388560865, "lng": -68.11705075780866}, "snapped_location": {"lat": -16.4558136, "lng": -68.11848700000002}, "grid_x": 15, "grid_y": 1, "snap_result_types": ["route"], "snap_result_place_id": "ChIJPW3npZIfX5ER-qSi7h4Emp8"}, {"raw_location": {"lat": -16.457170388560865, "lng": -68.11401256336421}, "snapped_location": {"lat": -16.4572631, "lng": -68.11319569999999}, "grid_x": 16, "grid_y": 1, "snap_result_types": ["route"], "snap_result_place_id": "ChIJYTK6dY4fX5ER7ISBgJqblvE"}, {"raw_location": {"lat": -16.457170388560865, "lng": -68.11097436891977}, "snapped_location": {"lat": -16.4568066, "lng": -68.111571}, "grid_x": 17, "grid_y": 1, "snap_result_types": ["route"], "snap_result_place_id": "ChIJYSrnPY4fX5ER3gO92VmRogI"}, {"raw_location": {"lat": -16.457170388560865, "lng": -68.10793617447533}, "snapped_location": {"lat": -16.4571325, "lng": -68.1060068}, "grid_x": 18, "grid_y": 1, "snap_result_types": ["route"], "snap_result_place_id": "ChIJF3jZDIUfX5ERYkiFPDrK5EU"}, {"raw_location": {"lat": -16.46008376320064, "lng": -68.16262367447533}, "snapped_location": {"lat": -16.4599706, "lng": -68.16286579999999}, "grid_x": 0, "grid_y": 2, "snap_result_types": ["route"], "snap_result_place_id": "ChIJQV-RaxLgXpERenO9sfNO3z0"}, {"raw_location": {"lat": -16.46008376320064, "lng": -68.15958548003088}, "snapped_location": {"lat": -16.4602257, "lng": -68.1596819}, "grid_x": 1, "grid_y": 2, "snap_result_types": ["route"], "snap_result_place_id": "ChIJr6e-5xHgXpERtgbFgHqULww"}, {"raw_location": {"lat": -16.46008376320064, "lng": -68.15654728558644}, "snapped_location": {"lat": -16.4600152, "lng": -68.1568399}, "grid_x": 2, "grid_y": 2, "snap_result_types": ["route"], "snap_result_place_id": "ChIJQUrqIxDgXpEROFLx5xJ7QLc"}, {"raw_location": {"lat": -16.46008376320064, "lng": -68.153509091142}, "snapped_location": {"lat": -16.4604969, "lng": -68.15356419999999}, "grid_x": 3, "grid_y": 2, "snap_result_types": ["route"], "snap_result_place_id": "ChIJY0MOSgXgXpER_BoRJmmW4VY"}, {"raw_location": {"lat": -16.46008376320064, "lng": -68.15047089669756}, "snapped_location": {"lat": -16.4601173, "lng": -68.15077029999999}, "grid_x": 4, "grid_y": 2, "snap_result_types": ["route"], "snap_result_place_id": "ChIJUbN5xQTgXpER1OGbNuqUozk"}, {"raw_location": {"lat": -16.46008376320064, "lng": -68.1474327022531}, "snapped_location": {"lat": -16.4604283, "lng": -68.1470671}, "grid_x": 5, "grid_y": 2, "snap_result_types": ["route"], "snap_result_place_id": "ChIJG06zogTgXpERtjDag1etuDA"}, {"raw_location": {"lat": -16.46008376320064, "lng": -68.14439450780866}, "snapped_location": {"lat": -16.4593229, "lng": -68.1445621}, "grid_x": 6, "grid_y": 2, "snap_result_types": ["route"], "snap_result_place_id": "ChIJy8CUugLgXpER2CFgCIZ7UW8"}, {"raw_location": {"lat": -16.46008376320064, "lng": -68.14135631336421}, "snapped_location": {"lat": -16.4601628, "lng": -68.1420199}, "grid_x": 7, "grid_y": 2, "snap_result_types": ["route"], "snap_result_place_id": "ChIJvV26DP0fX5ER6jevrNZKTSw"}, {"raw_location": {"lat": -16.46008376320064, "lng": -68.13831811891977}, "snapped_location": {"lat": -16.4591669, "lng": -68.136797}, "grid_x": 8, "grid_y": 2, "snap_result_types": ["route"], "snap_result_place_id": "ChIJY8-jqfwfX5ERMikyx5o3qAU"}, {"raw_location": {"lat": -16.46008376320064, "lng": -68.13527992447533}, "snapped_location": {"lat": -16.4605035, "lng": -68.1351699}, "grid_x": 9, "grid_y": 2, "snap_result_types": ["route"], "snap_result_place_id": "ChIJByIlD_sfX5ERuH32JtauRhs"}, {"raw_location": {"lat": -16.46008376320064, "lng": -68.13224173003088}, "snapped_location": {"lat": -16.4600077, "lng": -68.1322757}, "grid_x": 10, "grid_y": 2, "snap_result_types": ["route"], "snap_result_place_id": "ChIJS__nhfofX5ERVBwEePrj6O4"}, {"raw_location": {"lat": -16.46008376320064, "lng": -68.12920353558644}, "snapped_location": {"lat": -16.4593809, "lng": -68.12942439999999}, "grid_x": 11, "grid_y": 2, "snap_result_types": ["route"], "snap_result_place_id": "ChIJD6hLXfAfX5ER9OYv6oDsjPg"}, {"raw_location": {"lat": -16.46008376320064, "lng": -68.126165341142}, "snapped_location": {"lat": -16.4597259, "lng": -68.1264503}, "grid_x": 12, "grid_y": 2, "snap_result_types": ["route"], "snap_result_place_id": "ChIJC4VGnvEfX5ERWJ8EBzIxueM"}, {"raw_location": {"lat": -16.46008376320064, "lng": -68.12312714669756}, "snapped_location": {"lat": -16.4603172, "lng": -68.1210545}, "grid_x": 13, "grid_y": 2, "snap_result_types": ["route"], "snap_result_place_id": "ChIJKU7LFvMfX5ERcm2N2vf5-gY"}, {"raw_location": {"lat": -16.46008376320064, "lng": -68.1200889522531}, "snapped_location": {"lat": -16.4589035, "lng": -68.1202064}, "grid_x": 14, "grid_y": 2, "snap_result_types": ["route"], "snap_result_place_id": "ChIJ98PD2fIfX5ERbByujr2SV4Q"}, {"raw_location": {"lat": -16.46008376320064, "lng": -68.11705075780866}, "snapped_location": {"lat": -16.4600656, "lng": -68.11896920000001}, "grid_x": 15, "grid_y": 2, "snap_result_types": ["route"], "snap_result_place_id": "ChIJ16QM0owfX5ERSi1sTw06f9g"}, {"raw_location": {"lat": -16.46008376320064, "lng": -68.11401256336421}, "snapped_location": {"lat": -16.46008376320064, "lng": -68.11401256336421}, "grid_x": 16, "grid_y": 2, "snap_result_types": null, "snap_result_place_id": null}, {"raw_location": {"lat": -16.46008376320064, "lng": -68.11097436891977}, "snapped_location": {"lat": -16.46008376320064, "lng": -68.11097436891977}, "grid_x": 17, "grid_y": 2, "snap_result_types": null, "snap_result_place_id": null}, {"raw_location": {"lat": -16.46008376320064, "lng": -68.10793617447533}, "snapped_location": {"lat": -16.4608648, "lng": -68.1079422}, "grid_x": 18, "grid_y": 2, "snap_result_types": ["route"], "snap_result_place_id": "ChIJt8KiTY8fX5ERjBxsHPcQ_nU"}, {"raw_location": {"lat": -16.46299713784041, "lng": -68.16262367447533}, "snapped_location": {"lat": -16.4626802, "lng": -68.16275569999999}, "grid_x": 0, "grid_y": 3, "snap_result_types": ["route"], "snap_result_place_id": "ChIJAfwMvw3gXpERqIKMurGdHhU"}, {"raw_location": {"lat": -16.46299713784041, "lng": -68.15958548003088}, "snapped_location": {"lat": -16.4619743, "lng": -68.1598538}, "grid_x": 1, "grid_y": 3, "snap_result_types": ["route"], "snap_result_place_id": "ChIJ7bhJFA7gXpERmvHPcv-4fVw"}, {"raw_location": {"lat": -16.46299713784041, "lng": -68.15654728558644}, "snapped_location": {"lat": -16.462357, "lng": -68.1569509}, "grid_x": 2, "grid_y": 3, "snap_result_types": ["route"], "snap_result_place_id": "ChIJ_0eDuw_gXpERHu_Fx-EPOWo"}, {"raw_location": {"lat": -16.46299713784041, "lng": -68.153509091142}, "snapped_location": {"lat": -16.4652169, "lng": -68.15442530000001}, "grid_x": 3, "grid_y": 3, "snap_result_types": ["route"], "snap_result_place_id": "ChIJW1QR-wXgXpERMGfcIhYTc9o"}, {"raw_location": {"lat": -16.46299713784041, "lng": -68.15047089669756}, "snapped_location": {"lat": -16.4631253, "lng": -68.1504244}, "grid_x": 4, "grid_y": 3, "snap_result_types": ["route"], "snap_result_place_id": "ChIJLQAxZgTgXpER5sfSGPoris8"}, {"raw_location": {"lat": -16.46299713784041, "lng": -68.1474327022531}, "snapped_location": {"lat": -16.4625361, "lng": -68.14678239999999}, "grid_x": 5, "grid_y": 3, "snap_result_types": ["route"], "snap_result_place_id": "ChIJ_6cHpgPgXpERWKwWQvynUns"}, {"raw_location": {"lat": -16.46299713784041, "lng": -68.14439450780866}, "snapped_location": {"lat": -16.4625361, "lng": -68.14678239999999}, "grid_x": 6, "grid_y": 3, "snap_result_types": ["route"], "snap_result_place_id": "ChIJ_6cHpgPgXpERWKwWQvynUns"}, {"raw_location": {"lat": -16.46299713784041, "lng": -68.14135631336421}, "snapped_location": {"lat": -16.4630579, "lng": -68.14134159999999}, "grid_x": 7, "grid_y": 3, "snap_result_types": ["route"], "snap_result_place_id": "ChIJ07E3x_0fX5ER-r0NtiNv_yI"}, {"raw_location": {"lat": -16.46299713784041, "lng": -68.13831811891977}, "snapped_location": {"lat": -16.4632111, "lng": -68.1384025}, "grid_x": 8, "grid_y": 3, "snap_result_types": ["route"], "snap_result_place_id": "ChIJq__WFvwfX5ERtpMRak-Uc-U"}, {"raw_location": {"lat": -16.46299713784041, "lng": -68.13527992447533}, "snapped_location": {"lat": -16.4630637, "lng": -68.135548}, "grid_x": 9, "grid_y": 3, "snap_result_types": ["route"], "snap_result_place_id": "ChIJByo32PsfX5ERcHOm8y2vNMo"}, {"raw_location": {"lat": -16.46299713784041, "lng": -68.13224173003088}, "snapped_location": {"lat": -16.4628648, "lng": -68.132025}, "grid_x": 10, "grid_y": 3, "snap_result_types": ["route"], "snap_result_place_id": "ChIJAzJfHvofX5ERSFkifCGpP9Y"}, {"raw_location": {"lat": -16.46299713784041, "lng": -68.12920353558644}, "snapped_location": {"lat": -16.4624988, "lng": -68.1295221}, "grid_x": 11, "grid_y": 3, "snap_result_types": ["route"], "snap_result_place_id": "ChIJTWHqz_AfX5ERsok0CiDhajA"}, {"raw_location": {"lat": -16.46299713784041, "lng": -68.126165341142}, "snapped_location": {"lat": -16.4628905, "lng": -68.1261274}, "grid_x": 12, "grid_y": 3, "snap_result_types": ["route"], "snap_result_place_id": "ChIJ-TM_SvEfX5ERDrPL1GuY1WA"}, {"raw_location": {"lat": -16.46299713784041, "lng": -68.12312714669756}, "snapped_location": {"lat": -16.4618928, "lng": -68.12136710000001}, "grid_x": 13, "grid_y": 3, "snap_result_types": ["route"], "snap_result_place_id": "ChIJkQQuY_MfX5ER4vZRU1wm-ek"}, {"raw_location": {"lat": -16.46299713784041, "lng": -68.1200889522531}, "snapped_location": {"lat": -16.4626307, "lng": -68.1201434}, "grid_x": 14, "grid_y": 3, "snap_result_types": ["route"], "snap_result_place_id": "ChIJC6ugoPQfX5ERfoAi2q-OWa0"}, {"raw_location": {"lat": -16.46299713784041, "lng": -68.11705075780866}, "snapped_location": {"lat": -16.4631669, "lng": -68.11778029999999}, "grid_x": 15, "grid_y": 3, "snap_result_types": ["route"], "snap_result_place_id": "ChIJb5_YP4sfX5ER0mLJbagtwOU"}, {"raw_location": {"lat": -16.46299713784041, "lng": -68.11401256336421}, "snapped_location": {"lat": -16.4642734, "lng": -68.11379409999999}, "grid_x": 16, "grid_y": 3, "snap_result_types": ["route"], "snap_result_place_id": "ChIJ28lpLIofX5ER_vpnAZUPiWs"}, {"raw_location": {"lat": -16.46299713784041, "lng": -68.11097436891977}, "snapped_location": {"lat": -16.4636455, "lng": -68.1103574}, "grid_x": 17, "grid_y": 3, "snap_result_types": ["route"], "snap_result_place_id": "ChIJVbadCIkfX5ER7kyZDuvCs-U"}, {"raw_location": {"lat": -16.46299713784041, "lng": -68.10793617447533}, "snapped_location": {"lat": -16.462812, "lng": -68.10766269999999}, "grid_x": 18, "grid_y": 3, "snap_result_types": ["route"], "snap_result_place_id": "ChIJGd6ng4gfX5ERcBUWS2w9gOg"}, {"raw_location": {"lat": -16.465910512480185, "lng": -68.16262367447533}, "snapped_location": {"lat": -16.4654398, "lng": -68.1626321}, "grid_x": 0, "grid_y": 4, "snap_result_types": ["route"], "snap_result_place_id": "ChIJ0_ZqawzgXpERsDXvPO_W4z4"}, {"raw_location": {"lat": -16.465910512480185, "lng": -68.15958548003088}, "snapped_location": {"lat": -16.4645985, "lng": -68.1594956}, "grid_x": 1, "grid_y": 4, "snap_result_types": ["route"], "snap_result_place_id": "ChIJDW1O6w7gXpERvjA8-CUjAu4"}, {"raw_location": {"lat": -16.465910512480185, "lng": -68.15654728558644}, "snapped_location": {"lat": -16.4658507, "lng": -68.1564657}, "grid_x": 2, "grid_y": 4, "snap_result_types": ["route"], "snap_result_place_id": "ChIJEYq_Sg_gXpEREI1JXUTkE3A"}, {"raw_location": {"lat": -16.465910512480185, "lng": -68.153509091142}, "snapped_location": {"lat": -16.4667293, "lng": -68.1537326}, "grid_x": 3, "grid_y": 4, "snap_result_types": ["route"], "snap_result_place_id": "ChIJW9f0cwbgXpERuJ3QLH8uaMk"}, {"raw_location": {"lat": -16.465910512480185, "lng": -68.15047089669756}, "snapped_location": {"lat": -16.4650599, "lng": -68.1501112}, "grid_x": 4, "grid_y": 4, "snap_result_types": ["route"], "snap_result_place_id": "ChIJFcZAHATgXpER7pO_XeQVXD4"}, {"raw_location": {"lat": -16.465910512480185, "lng": -68.1474327022531}, "snapped_location": {"lat": -16.4658897, "lng": -68.1488121}, "grid_x": 5, "grid_y": 4, "snap_result_types": ["route"], "snap_result_place_id": "ChIJpez0TQHgXpERDnhgh0P43Z4"}, {"raw_location": {"lat": -16.465910512480185, "lng": -68.14439450780866}, "snapped_location": {"lat": -16.4661407, "lng": -68.1443651}, "grid_x": 6, "grid_y": 4, "snap_result_types": ["route"], "snap_result_place_id": "ChIJ_R2ZwQHgXpERVLqSyIdmQz0"}, {"raw_location": {"lat": -16.465910512480185, "lng": -68.14135631336421}, "snapped_location": {"lat": -16.46615, "lng": -68.1409809}, "grid_x": 7, "grid_y": 4, "snap_result_types": ["route"], "snap_result_place_id": "ChIJobIbAP8fX5ERHHd1LNK4uSo"}, {"raw_location": {"lat": -16.465910512480185, "lng": -68.13831811891977}, "snapped_location": {"lat": -16.4661124, "lng": -68.1383929}, "grid_x": 8, "grid_y": 4, "snap_result_types": ["route"], "snap_result_place_id": "ChIJoW2N3f4fX5ERpu-3BV86wVY"}, {"raw_location": {"lat": -16.465910512480185, "lng": -68.13527992447533}, "snapped_location": {"lat": -16.465846, "lng": -68.135213}, "grid_x": 9, "grid_y": 4, "snap_result_types": ["route"], "snap_result_place_id": "ChIJm5VPGvkfX5ERpMqcZrDAkC0"}, {"raw_location": {"lat": -16.465910512480185, "lng": -68.13224173003088}, "snapped_location": {"lat": -16.4671423, "lng": -68.13241409999999}, "grid_x": 10, "grid_y": 4, "snap_result_types": ["route"], "snap_result_place_id": "ChIJ2a7HPvgfX5ERPpBE1Z5tKx0"}, {"raw_location": {"lat": -16.465910512480185, "lng": -68.12920353558644}, "snapped_location": {"lat": -16.466381, "lng": -68.1293901}, "grid_x": 11, "grid_y": 4, "snap_result_types": ["route"], "snap_result_place_id": "ChIJDe6gpPcfX5ERbocCr_L6PFc"}, {"raw_location": {"lat": -16.465910512480185, "lng": -68.126165341142}, "snapped_location": {"lat": -16.4658167, "lng": -68.1257291}, "grid_x": 12, "grid_y": 4, "snap_result_types": ["route"], "snap_result_place_id": "ChIJ2Qf2ifYfX5ERTmrthyBX0ow"}, {"raw_location": {"lat": -16.465910512480185, "lng": -68.12312714669756}, "snapped_location": {"lat": -16.4651417, "lng": -68.1244634}, "grid_x": 13, "grid_y": 4, "snap_result_types": ["route"], "snap_result_place_id": "ChIJMQ-GNPQfX5ER8Efj67QGm30"}, {"raw_location": {"lat": -16.465910512480185, "lng": -68.1200889522531}, "snapped_location": {"lat": -16.4670652, "lng": -68.11974200000002}, "grid_x": 14, "grid_y": 4, "snap_result_types": ["route"], "snap_result_place_id": "ChIJ7yAJ4x8gX5ERCKzltscDnIk"}, {"raw_location": {"lat": -16.465910512480185, "lng": -68.11705075780866}, "snapped_location": {"lat": -16.4659947, "lng": -68.11713209999999}, "grid_x": 15, "grid_y": 4, "snap_result_types": ["route"], "snap_result_place_id": "ChIJG4RdkoofX5ERLG8LgLSkGFw"}, {"raw_location": {"lat": -16.465910512480185, "lng": -68.11401256336421}, "snapped_location": {"lat": -16.4657303, "lng": -68.1135012}, "grid_x": 16, "grid_y": 4, "snap_result_types": ["route"], "snap_result_place_id": "ChIJ3wGKHoofX5ER3nAj4njoSxQ"}, {"raw_location": {"lat": -16.465910512480185, "lng": -68.11097436891977}, "snapped_location": {"lat": -16.4661262, "lng": -68.11093170000001}, "grid_x": 17, "grid_y": 4, "snap_result_types": ["route"], "snap_result_place_id": "ChIJN5LD0IkfX5ERaOntmLdtwQo"}, {"raw_location": {"lat": -16.465910512480185, "lng": -68.10793617447533}, "snapped_location": {"lat": -16.4660359, "lng": -68.10828479999999}, "grid_x": 18, "grid_y": 4, "snap_result_types": ["route"], "snap_result_place_id": "ChIJFwD8HIgfX5ERSFxtZkbnlPI"}, {"raw_location": {"lat": -16.46882388711996, "lng": -68.16262367447533}, "snapped_location": {"lat": -16.4688435, "lng": -68.1636882}, "grid_x": 0, "grid_y": 5, "snap_result_types": ["route"], "snap_result_place_id": "ChIJ25XlswvgXpERunhKQgIg_Gw"}, {"raw_location": {"lat": -16.46882388711996, "lng": -68.15958548003088}, "snapped_location": {"lat": -16.4706106, "lng": -68.15797479999999}, "grid_x": 1, "grid_y": 5, "snap_result_types": ["route"], "snap_result_place_id": "ChIJYW8hywngXpERsCnjNxqOfC8"}, {"raw_location": {"lat": -16.46882388711996, "lng": -68.15654728558644}, "snapped_location": {"lat": -16.4706106, "lng": -68.15797479999999}, "grid_x": 2, "grid_y": 5, "snap_result_types": ["route"], "snap_result_place_id": "ChIJYW8hywngXpERsCnjNxqOfC8"}, {"raw_location": {"lat": -16.46882388711996, "lng": -68.153509091142}, "snapped_location": {"lat": -16.4692686, "lng": -68.1534353}, "grid_x": 3, "grid_y": 5, "snap_result_types": ["route"], "snap_result_place_id": "ChIJb5z0ywfgXpERwEfu0L54YfQ"}, {"raw_location": {"lat": -16.46882388711996, "lng": -68.15047089669756}, "snapped_location": {"lat": -16.4689827, "lng": -68.1507817}, "grid_x": 4, "grid_y": 5, "snap_result_types": ["route"], "snap_result_place_id": "ChIJr2enFwfgXpERcGNUy8ZcneI"}, {"raw_location": {"lat": -16.46882388711996, "lng": -68.1474327022531}, "snapped_location": {"lat": -16.4685805, "lng": -68.14775290000001}, "grid_x": 5, "grid_y": 5, "snap_result_types": ["route"], "snap_result_place_id": "ChIJg0p3vwDgXpER7N5PRdKBfxc"}, {"raw_location": {"lat": -16.46882388711996, "lng": -68.14439450780866}, "snapped_location": {"lat": -16.4685684, "lng": -68.14430779999999}, "grid_x": 6, "grid_y": 5, "snap_result_types": ["route"], "snap_result_place_id": "ChIJ8bN9PgDgXpERZq7DQmPtKOE"}, {"raw_location": {"lat": -16.46882388711996, "lng": -68.14135631336421}, "snapped_location": {"lat": -16.4687323, "lng": -68.1413097}, "grid_x": 7, "grid_y": 5, "snap_result_types": ["route"], "snap_result_place_id": "ChIJ3ekGlP8fX5ERWqOog_qlNqo"}, {"raw_location": {"lat": -16.46882388711996, "lng": -68.13831811891977}, "snapped_location": {"lat": -16.4699958, "lng": -68.1380467}, "grid_x": 8, "grid_y": 5, "snap_result_types": ["route"], "snap_result_place_id": "ChIJnVnABAIgX5ERQuw7DHP46dw"}, {"raw_location": {"lat": -16.46882388711996, "lng": -68.13527992447533}, "snapped_location": {"lat": -16.4684286, "lng": -68.1366676}, "grid_x": 9, "grid_y": 5, "snap_result_types": ["route"], "snap_result_place_id": "ChIJnVnABAIgX5ERgGvz-xKbxMo"}, {"raw_location": {"lat": -16.46882388711996, "lng": -68.13224173003088}, "snapped_location": {"lat": -16.468031, "lng": -68.1317399}, "grid_x": 10, "grid_y": 5, "snap_result_types": ["route"], "snap_result_place_id": "ChIJm3AXG_gfX5ER6nigUKkhXes"}, {"raw_location": {"lat": -16.46882388711996, "lng": -68.12920353558644}, "snapped_location": {"lat": -16.468566, "lng": -68.130129}, "grid_x": 11, "grid_y": 5, "snap_result_types": ["route"], "snap_result_place_id": "ChIJwakY4vcfX5ERSJLH0gOV3iI"}, {"raw_location": {"lat": -16.46882388711996, "lng": -68.126165341142}, "snapped_location": {"lat": -16.4679807, "lng": -68.1261815}, "grid_x": 12, "grid_y": 5, "snap_result_types": ["route"], "snap_result_place_id": "ChIJBXBZHPYfX5ERYDjXyQtypeg"}, {"raw_location": {"lat": -16.46882388711996, "lng": -68.12312714669756}, "snapped_location": {"lat": -16.4689861, "lng": -68.12320849999999}, "grid_x": 13, "grid_y": 5, "snap_result_types": ["route"], "snap_result_place_id": "ChIJB7hqOR4gX5ERmA4F1Huo5xU"}, {"raw_location": {"lat": -16.46882388711996, "lng": -68.1200889522531}, "snapped_location": {"lat": -16.4689869, "lng": -68.1202182}, "grid_x": 14, "grid_y": 5, "snap_result_types": ["route"], "snap_result_place_id": "ChIJpRJa6x8gX5ERiHRHXfPnGPU"}, {"raw_location": {"lat": -16.46882388711996, "lng": -68.11705075780866}, "snapped_location": {"lat": -16.4688294, "lng": -68.11686019999999}, "grid_x": 15, "grid_y": 5, "snap_result_types": ["route"], "snap_result_place_id": "ChIJ16deXCAgX5ERaqUtP5w6-5c"}, {"raw_location": {"lat": -16.46882388711996, "lng": -68.11401256336421}, "snapped_location": {"lat": -16.4686896, "lng": -68.1141794}, "grid_x": 16, "grid_y": 5, "snap_result_types": ["route"], "snap_result_place_id": "ChIJ5c5kzyAgX5ER6HRg6XScnk0"}, {"raw_location": {"lat": -16.46882388711996, "lng": -68.11097436891977}, "snapped_location": {"lat": -16.4683953, "lng": -68.11164500000001}, "grid_x": 17, "grid_y": 5, "snap_result_types": ["route"], "snap_result_place_id": "ChIJFzv3FicgX5ERFFIp9YjytZk"}, {"raw_location": {"lat": -16.46882388711996, "lng": -68.10793617447533}, "snapped_location": {"lat": -16.4679978, "lng": -68.1090449}, "grid_x": 18, "grid_y": 5, "snap_result_types": ["route"], "snap_result_place_id": "ChIJkY_9vicgX5ER5EXnlXkDIq8"}, {"raw_location": {"lat": -16.471737261759735, "lng": -68.16262367447533}, "snapped_location": {"lat": -16.471737261759735, "lng": -68.16262367447533}, "grid_x": 0, "grid_y": 6, "snap_result_types": null, "snap_result_place_id": null}, {"raw_location": {"lat": -16.471737261759735, "lng": -68.15958548003088}, "snapped_location": {"lat": -16.471737261759735, "lng": -68.15958548003088}, "grid_x": 1, "grid_y": 6, "snap_result_types": null, "snap_result_place_id": null}, {"raw_location": {"lat": -16.471737261759735, "lng": -68.15654728558644}, "snapped_location": {"lat": -16.4702014, "lng": -68.15688039999999}, "grid_x": 2, "grid_y": 6, "snap_result_types": ["route"], "snap_result_place_id": "ChIJcaQcUgjgXpERAFuRkxJTtHY"}, {"raw_location": {"lat": -16.471737261759735, "lng": -68.153509091142}, "snapped_location": {"lat": -16.4717623, "lng": -68.1537942}, "grid_x": 3, "grid_y": 6, "snap_result_types": ["route"], "snap_result_place_id": "ChIJpbPtXP3fXpERem6ChPCwU7M"}, {"raw_location": {"lat": -16.471737261759735, "lng": -68.15047089669756}, "snapped_location": {"lat": -16.4724257, "lng": -68.15068649999999}, "grid_x": 4, "grid_y": 6, "snap_result_types": ["route"], "snap_result_place_id": "ChIJHaKFv_3fXpERonpNm6Peq8k"}, {"raw_location": {"lat": -16.471737261759735, "lng": -68.1474327022531}, "snapped_location": {"lat": -16.4722438, "lng": -68.1479645}, "grid_x": 5, "grid_y": 6, "snap_result_types": ["route"], "snap_result_place_id": "ChIJ2eiMZ_7fXpEREEwp1fX5coE"}, {"raw_location": {"lat": -16.471737261759735, "lng": -68.14439450780866}, "snapped_location": {"lat": -16.4714955, "lng": -68.1434266}, "grid_x": 6, "grid_y": 6, "snap_result_types": ["route"], "snap_result_place_id": "ChIJnbACi__fXpERYE8Sd6lvlMs"}, {"raw_location": {"lat": -16.471737261759735, "lng": -68.14135631336421}, "snapped_location": {"lat": -16.4713667, "lng": -68.14180499999999}, "grid_x": 7, "grid_y": 6, "snap_result_types": ["route"], "snap_result_place_id": "ChIJvYdDawAgX5ERbgluXlOYKHU"}, {"raw_location": {"lat": -16.471737261759735, "lng": -68.13831811891977}, "snapped_location": {"lat": -16.471737261759735, "lng": -68.13831811891977}, "grid_x": 8, "grid_y": 6, "snap_result_types": null, "snap_result_place_id": null}, {"raw_location": {"lat": -16.471737261759735, "lng": -68.13527992447533}, "snapped_location": {"lat": -16.4725772, "lng": -68.1346944}, "grid_x": 9, "grid_y": 6, "snap_result_types": ["route"], "snap_result_place_id": "ChIJBWtErwMgX5ERvOhrPisY2hQ"}, {"raw_location": {"lat": -16.471737261759735, "lng": -68.13224173003088}, "snapped_location": {"lat": -16.473417, "lng": -68.1324629}, "grid_x": 10, "grid_y": 6, "snap_result_types": ["route"], "snap_result_place_id": "ChIJUdQUQQMgX5ERMF4M2Sh1HCw"}, {"raw_location": {"lat": -16.471737261759735, "lng": -68.12920353558644}, "snapped_location": {"lat": -16.4707538, "lng": -68.1292557}, "grid_x": 11, "grid_y": 6, "snap_result_types": ["route"], "snap_result_place_id": "ChIJOyFdGh0gX5ERzG2lDsSNdzk"}, {"raw_location": {"lat": -16.471737261759735, "lng": -68.126165341142}, "snapped_location": {"lat": -16.4709521, "lng": -68.12603419999999}, "grid_x": 12, "grid_y": 6, "snap_result_types": ["route"], "snap_result_place_id": "ChIJgxrUMhwgX5ERNtg0OQCmQdw"}, {"raw_location": {"lat": -16.471737261759735, "lng": -68.12312714669756}, "snapped_location": {"lat": -16.4717202, "lng": -68.1231957}, "grid_x": 13, "grid_y": 6, "snap_result_types": ["route"], "snap_result_place_id": "ChIJDfDZ6B4gX5ER5uMg1wOaJOY"}, {"raw_location": {"lat": -16.471737261759735, "lng": -68.1200889522531}, "snapped_location": {"lat": -16.4720833, "lng": -68.119855}, "grid_x": 14, "grid_y": 6, "snap_result_types": ["route"], "snap_result_place_id": "ChIJwzODXB8gX5ER3GmQSyjmxN4"}, {"raw_location": {"lat": -16.471737261759735, "lng": -68.11705075780866}, "snapped_location": {"lat": -16.4715843, "lng": -68.116522}, "grid_x": 15, "grid_y": 6, "snap_result_types": ["route"], "snap_result_place_id": "ChIJS82BniEgX5ERlAr4aALmfJY"}, {"raw_location": {"lat": -16.471737261759735, "lng": -68.11401256336421}, "snapped_location": {"lat": -16.4714421, "lng": -68.1137996}, "grid_x": 16, "grid_y": 6, "snap_result_types": ["route"], "snap_result_place_id": "ChIJjY_OTiEgX5ERQgRQbPrxiZM"}, {"raw_location": {"lat": -16.471737261759735, "lng": -68.11097436891977}, "snapped_location": {"lat": -16.4725231, "lng": -68.11165969999999}, "grid_x": 17, "grid_y": 6, "snap_result_types": ["route"], "snap_result_place_id": "ChIJ1f6UISQgX5ERZAY9u7_Q4A4"}, {"raw_location": {"lat": -16.471737261759735, "lng": -68.10793617447533}, "snapped_location": {"lat": -16.4723587, "lng": -68.10892199999999}, "grid_x": 18, "grid_y": 6, "snap_result_types": ["route"], "snap_result_place_id": "ChIJw7KddyYgX5ERfEKQdVq1w6A"}, {"raw_location": {"lat": -16.474650636399506, "lng": -68.16262367447533}, "snapped_location": {"lat": -16.474650636399506, "lng": -68.16262367447533}, "grid_x": 0, "grid_y": 7, "snap_result_types": null, "snap_result_place_id": null}, {"raw_location": {"lat": -16.474650636399506, "lng": -68.15958548003088}, "snapped_location": {"lat": -16.4764143, "lng": -68.15959409999999}, "grid_x": 1, "grid_y": 7, "snap_result_types": ["route"], "snap_result_place_id": "ChIJt-mGxuPfXpER3MWgB14Nso0"}, {"raw_location": {"lat": -16.474650636399506, "lng": -68.15654728558644}, "snapped_location": {"lat": -16.474650636399506, "lng": -68.15654728558644}, "grid_x": 2, "grid_y": 7, "snap_result_types": null, "snap_result_place_id": null}, {"raw_location": {"lat": -16.474650636399506, "lng": -68.153509091142}, "snapped_location": {"lat": -16.4743449, "lng": -68.1529882}, "grid_x": 3, "grid_y": 7, "snap_result_types": ["route"], "snap_result_place_id": "ChIJ32flZPzfXpERzmF-8wM5vHs"}, {"raw_location": {"lat": -16.474650636399506, "lng": -68.15047089669756}, "snapped_location": {"lat": -16.4745709, "lng": -68.15046629999999}, "grid_x": 4, "grid_y": 7, "snap_result_types": ["route"], "snap_result_place_id": "ChIJ3YHoOPzfXpERXpSVVt1ZsUI"}, {"raw_location": {"lat": -16.474650636399506, "lng": -68.1474327022531}, "snapped_location": {"lat": -16.4746431, "lng": -68.14747009999999}, "grid_x": 5, "grid_y": 7, "snap_result_types": ["route"], "snap_result_place_id": "ChIJU1Kf6v7fXpERtM7T9tYZ22U"}, {"raw_location": {"lat": -16.474650636399506, "lng": -68.14439450780866}, "snapped_location": {"lat": -16.4747317, "lng": -68.1445888}, "grid_x": 6, "grid_y": 7, "snap_result_types": ["route"], "snap_result_place_id": "ChIJg2QlOP_fXpERaAPxv_CyRLE"}, {"raw_location": {"lat": -16.474650636399506, "lng": -68.14135631336421}, "snapped_location": {"lat": -16.4738226, "lng": -68.1407433}, "grid_x": 7, "grid_y": 7, "snap_result_types": ["route"], "snap_result_place_id": "ChIJ1-e17QAgX5ERFLQCboK-w4k"}, {"raw_location": {"lat": -16.474650636399506, "lng": -68.13831811891977}, "snapped_location": {"lat": -16.4734053, "lng": -68.13630599999999}, "grid_x": 8, "grid_y": 7, "snap_result_types": ["route"], "snap_result_place_id": "ChIJuydhwwMgX5ERtEzeYwjC3Wc"}, {"raw_location": {"lat": -16.474650636399506, "lng": -68.13527992447533}, "snapped_location": {"lat": -16.4725772, "lng": -68.1346944}, "grid_x": 9, "grid_y": 7, "snap_result_types": ["route"], "snap_result_place_id": "ChIJBWtErwMgX5ERvOhrPisY2hQ"}, {"raw_location": {"lat": -16.474650636399506, "lng": -68.13224173003088}, "snapped_location": {"lat": -16.4739113, "lng": -68.1319165}, "grid_x": 10, "grid_y": 7, "snap_result_types": ["route"], "snap_result_place_id": "ChIJr5-PUAMgX5ERFPrFXxjPkag"}, {"raw_location": {"lat": -16.474650636399506, "lng": -68.12920353558644}, "snapped_location": {"lat": -16.4742368, "lng": -68.1291308}, "grid_x": 11, "grid_y": 7, "snap_result_types": ["route"], "snap_result_place_id": "ChIJQ--FYhsgX5ER7i0KAYkt_mg"}, {"raw_location": {"lat": -16.474650636399506, "lng": -68.126165341142}, "snapped_location": {"lat": -16.4743324, "lng": -68.12655269999999}, "grid_x": 12, "grid_y": 7, "snap_result_types": ["route"], "snap_result_place_id": "ChIJ4Uu-8xsgX5ERmnnhMWD57M0"}, {"raw_location": {"lat": -16.474650636399506, "lng": -68.12312714669756}, "snapped_location": {"lat": -16.4743905, "lng": -68.1232921}, "grid_x": 13, "grid_y": 7, "snap_result_types": ["route"], "snap_result_place_id": "ChIJrVvIOxkgX5ERlAz9bEXx5QQ"}, {"raw_location": {"lat": -16.474650636399506, "lng": -68.1200889522531}, "snapped_location": {"lat": -16.4744839, "lng": -68.12005479999999}, "grid_x": 14, "grid_y": 7, "snap_result_types": ["route"], "snap_result_place_id": "ChIJL8xnvRggX5ER2qlG-xblDBM"}, {"raw_location": {"lat": -16.474650636399506, "lng": -68.11705075780866}, "snapped_location": {"lat": -16.4745589, "lng": -68.1168381}, "grid_x": 15, "grid_y": 7, "snap_result_types": ["route"], "snap_result_place_id": "ChIJjQrYTiIgX5ERFgWaK_mRecQ"}, {"raw_location": {"lat": -16.474650636399506, "lng": -68.11401256336421}, "snapped_location": {"lat": -16.474509, "lng": -68.11394899999999}, "grid_x": 16, "grid_y": 7, "snap_result_types": ["route"], "snap_result_place_id": "ChIJ4R3kgiMgX5ERtu8Dmzmqrh4"}, {"raw_location": {"lat": -16.474650636399506, "lng": -68.11097436891977}, "snapped_location": {"lat": -16.4756035, "lng": -68.1111341}, "grid_x": 17, "grid_y": 7, "snap_result_types": ["route"], "snap_result_place_id": "ChIJQ2P77yQgX5ERtiV30_Gw04o"}, {"raw_location": {"lat": -16.474650636399506, "lng": -68.10793617447533}, "snapped_location": {"lat": -16.4759417, "lng": -68.1083108}, "grid_x": 18, "grid_y": 7, "snap_result_types": ["route"], "snap_result_place_id": "ChIJ8X3JaSUgX5ERvG8ZU8wXcdU"}, {"raw_location": {"lat": -16.47756401103928, "lng": -68.16262367447533}, "snapped_location": {"lat": -16.47756401103928, "lng": -68.16262367447533}, "grid_x": 0, "grid_y": 8, "snap_result_types": null, "snap_result_place_id": null}, {"raw_location": {"lat": -16.47756401103928, "lng": -68.15958548003088}, "snapped_location": {"lat": -16.47756401103928, "lng": -68.15958548003088}, "grid_x": 1, "grid_y": 8, "snap_result_types": null, "snap_result_place_id": null}, {"raw_location": {"lat": -16.47756401103928, "lng": -68.15654728558644}, "snapped_location": {"lat": -16.4793453, "lng": -68.1562601}, "grid_x": 2, "grid_y": 8, "snap_result_types": ["establishment", "local_government_office", "point_of_interest"], "snap_result_place_id": "ChIJf8v-7gDfXpERDdER0DF0re8"}, {"raw_location": {"lat": -16.47756401103928, "lng": -68.153509091142}, "snapped_location": {"lat": -16.47756401103928, "lng": -68.153509091142}, "grid_x": 3, "grid_y": 8, "snap_result_types": null, "snap_result_place_id": null}, {"raw_location": {"lat": -16.47756401103928, "lng": -68.15047089669756}, "snapped_location": {"lat": -16.4779381, "lng": -68.1498525}, "grid_x": 4, "grid_y": 8, "snap_result_types": ["route"], "snap_result_place_id": "ChIJ6VKZ3PvfXpER7tCKcFrxSV4"}, {"raw_location": {"lat": -16.47756401103928, "lng": -68.1474327022531}, "snapped_location": {"lat": -16.4768816, "lng": -68.1470263}, "grid_x": 5, "grid_y": 8, "snap_result_types": ["route"], "snap_result_place_id": "ChIJeXhaOvnfXpERehouOgTMa-c"}, {"raw_location": {"lat": -16.47756401103928, "lng": -68.14439450780866}, "snapped_location": {"lat": -16.4776841, "lng": -68.1454313}, "grid_x": 6, "grid_y": 8, "snap_result_types": ["route"], "snap_result_place_id": "ChIJbbJX8PjfXpERZCT5Btqq6es"}, {"raw_location": {"lat": -16.47756401103928, "lng": -68.14135631336421}, "snapped_location": {"lat": -16.4795644, "lng": -68.1418453}, "grid_x": 7, "grid_y": 8, "snap_result_types": ["route"], "snap_result_place_id": "ChIJbayxlAcgX5ERXCdOEzcacpQ"}, {"raw_location": {"lat": -16.47756401103928, "lng": -68.13831811891977}, "snapped_location": {"lat": -16.4779361, "lng": -68.1376236}, "grid_x": 8, "grid_y": 8, "snap_result_types": ["route"], "snap_result_place_id": "ChIJG0vZewYgX5ERprSft-5ZHgg"}, {"raw_location": {"lat": -16.47756401103928, "lng": -68.13527992447533}, "snapped_location": {"lat": -16.4782217, "lng": -68.1375267}, "grid_x": 9, "grid_y": 8, "snap_result_types": ["route"], "snap_result_place_id": "ChIJG0vZewYgX5ER1DqauZd9fvA"}, {"raw_location": {"lat": -16.47756401103928, "lng": -68.13224173003088}, "snapped_location": {"lat": -16.4764548, "lng": -68.1303587}, "grid_x": 10, "grid_y": 8, "snap_result_types": ["route"], "snap_result_place_id": "ChIJL0JtJhsgX5ERjLFUeIPqmvg"}, {"raw_location": {"lat": -16.47756401103928, "lng": -68.12920353558644}, "snapped_location": {"lat": -16.4773999, "lng": -68.1295947}, "grid_x": 11, "grid_y": 8, "snap_result_types": ["route"], "snap_result_place_id": "ChIJLXgn4RogX5ERMnhMhDFocGw"}, {"raw_location": {"lat": -16.47756401103928, "lng": -68.126165341142}, "snapped_location": {"lat": -16.4774288, "lng": -68.12636979999999}, "grid_x": 12, "grid_y": 8, "snap_result_types": ["route"], "snap_result_place_id": "ChIJR_EINhogX5ERqCOTsXnZsAY"}, {"raw_location": {"lat": -16.47756401103928, "lng": -68.12312714669756}, "snapped_location": {"lat": -16.4773753, "lng": -68.12337699999999}, "grid_x": 13, "grid_y": 8, "snap_result_types": ["route"], "snap_result_place_id": "ChIJG-A1uRkgX5ER6lBNnLGrzSU"}, {"raw_location": {"lat": -16.47756401103928, "lng": -68.1200889522531}, "snapped_location": {"lat": -16.4778909, "lng": -68.11995519999999}, "grid_x": 14, "grid_y": 8, "snap_result_types": ["route"], "snap_result_place_id": "ChIJ737tDxggX5ERDhxaEljzoBc"}, {"raw_location": {"lat": -16.47756401103928, "lng": -68.11705075780866}, "snapped_location": {"lat": -16.477851, "lng": -68.11665339999999}, "grid_x": 15, "grid_y": 8, "snap_result_types": ["route"], "snap_result_place_id": "ChIJF93N1iIgX5ER1nWCDrLsAFI"}, {"raw_location": {"lat": -16.47756401103928, "lng": -68.11401256336421}, "snapped_location": {"lat": -16.4784863, "lng": -68.11362729999999}, "grid_x": 16, "grid_y": 8, "snap_result_types": ["route"], "snap_result_place_id": "ChIJ87PZqDwgX5ERJPMqLCwzBEQ"}, {"raw_location": {"lat": -16.47756401103928, "lng": -68.11097436891977}, "snapped_location": {"lat": -16.4774512, "lng": -68.1107097}, "grid_x": 17, "grid_y": 8, "snap_result_types": ["route"], "snap_result_place_id": "ChIJzel71CQgX5ER6seOxYAs5Xw"}, {"raw_location": {"lat": -16.47756401103928, "lng": -68.10793617447533}, "snapped_location": {"lat": -16.4783937, "lng": -68.1085689}, "grid_x": 18, "grid_y": 8, "snap_result_types": ["route"], "snap_result_place_id": "ChIJc8EQpTogX5ERDLMppHWnD2w"}, {"raw_location": {"lat": -16.480477385679055, "lng": -68.16262367447533}, "snapped_location": {"lat": -16.481315, "lng": -68.1630983}, "grid_x": 0, "grid_y": 9, "snap_result_types": ["route"], "snap_result_place_id": "ChIJNQM7Q-bfXpEREGX7lRnWWj8"}, {"raw_location": {"lat": -16.480477385679055, "lng": -68.15958548003088}, "snapped_location": {"lat": -16.4803563, "lng": -68.16008140000001}, "grid_x": 1, "grid_y": 9, "snap_result_types": ["route"], "snap_result_place_id": "ChIJ2dpODOTfXpEREFfwiJGDCcA"}, {"raw_location": {"lat": -16.480477385679055, "lng": -68.15654728558644}, "snapped_location": {"lat": -16.4820137, "lng": -68.1560856}, "grid_x": 2, "grid_y": 9, "snap_result_types": ["route"], "snap_result_place_id": "ChIJj1PpWeXfXpERnmlT3h_CVpM"}, {"raw_location": {"lat": -16.480477385679055, "lng": -68.153509091142}, "snapped_location": {"lat": -16.4796173, "lng": -68.1524142}, "grid_x": 3, "grid_y": 9, "snap_result_types": ["route"], "snap_result_place_id": "ChIJTx_t__rfXpERVGv8809P858"}, {"raw_location": {"lat": -16.480477385679055, "lng": -68.15047089669756}, "snapped_location": {"lat": -16.4785261, "lng": -68.15139049999999}, "grid_x": 4, "grid_y": 9, "snap_result_types": ["route"], "snap_result_place_id": "ChIJ32flZPzfXpERkrXuf4BxAsg"}, {"raw_location": {"lat": -16.480477385679055, "lng": -68.1474327022531}, "snapped_location": {"lat": -16.4812205, "lng": -68.1467041}, "grid_x": 5, "grid_y": 9, "snap_result_types": ["route"], "snap_result_place_id": "ChIJxTRw1_nfXpER0mXpjFJYzSY"}, {"raw_location": {"lat": -16.480477385679055, "lng": -68.14439450780866}, "snapped_location": {"lat": -16.4803718, "lng": -68.1444405}, "grid_x": 6, "grid_y": 9, "snap_result_types": ["route"], "snap_result_place_id": "ChIJdQ32FvjfXpERlOL6iY8YFTc"}, {"raw_location": {"lat": -16.480477385679055, "lng": -68.14135631336421}, "snapped_location": {"lat": -16.4807062, "lng": -68.1415944}, "grid_x": 7, "grid_y": 9, "snap_result_types": ["route"], "snap_result_place_id": "ChIJH0MG3gcgX5ERxOmdMQnpetc"}, {"raw_location": {"lat": -16.480477385679055, "lng": -68.13831811891977}, "snapped_location": {"lat": -16.4804827, "lng": -68.1387759}, "grid_x": 8, "grid_y": 9, "snap_result_types": ["route"], "snap_result_place_id": "ChIJZ9TGIAYgX5ERJpaG_GqhfXY"}, {"raw_location": {"lat": -16.480477385679055, "lng": -68.13527992447533}, "snapped_location": {"lat": -16.4826393, "lng": -68.1364639}, "grid_x": 9, "grid_y": 9, "snap_result_types": ["route"], "snap_result_place_id": "ChIJb-rGKA8gX5EReHWBOTfIeSM"}, {"raw_location": {"lat": -16.480477385679055, "lng": -68.13224173003088}, "snapped_location": {"lat": -16.4801931, "lng": -68.1299344}, "grid_x": 10, "grid_y": 9, "snap_result_types": ["route"], "snap_result_place_id": "ChIJUQVICxAgX5ERVB1vk-xqMAk"}, {"raw_location": {"lat": -16.480477385679055, "lng": -68.12920353558644}, "snapped_location": {"lat": -16.4801931, "lng": -68.1299344}, "grid_x": 11, "grid_y": 9, "snap_result_types": ["route"], "snap_result_place_id": "ChIJUQVICxAgX5ERVB1vk-xqMAk"}, {"raw_location": {"lat": -16.480477385679055, "lng": -68.126165341142}, "snapped_location": {"lat": -16.4809775, "lng": -68.12589400000002}, "grid_x": 12, "grid_y": 9, "snap_result_types": ["route"], "snap_result_place_id": "ChIJebpqwRAgX5ERgAuwsAKJagU"}, {"raw_location": {"lat": -16.480477385679055, "lng": -68.12312714669756}, "snapped_location": {"lat": -16.4807709, "lng": -68.1233511}, "grid_x": 13, "grid_y": 9, "snap_result_types": ["route"], "snap_result_place_id": "ChIJ751DERcgX5ERhqWpwz6K0nU"}, {"raw_location": {"lat": -16.480477385679055, "lng": -68.1200889522531}, "snapped_location": {"lat": -16.4805642, "lng": -68.11988889999999}, "grid_x": 14, "grid_y": 9, "snap_result_types": ["route"], "snap_result_place_id": "ChIJfzH72hcgX5ERIuu4-doHONM"}, {"raw_location": {"lat": -16.480477385679055, "lng": -68.11705075780866}, "snapped_location": {"lat": -16.4795681, "lng": -68.11730279999999}, "grid_x": 15, "grid_y": 9, "snap_result_types": ["route"], "snap_result_place_id": "ChIJodVIPD0gX5ERDE5IBiEVgOI"}, {"raw_location": {"lat": -16.480477385679055, "lng": -68.11401256336421}, "snapped_location": {"lat": -16.4804023, "lng": -68.1130404}, "grid_x": 16, "grid_y": 9, "snap_result_types": ["route"], "snap_result_place_id": "ChIJPXoodzsgX5ERMiUasCx9xdo"}, {"raw_location": {"lat": -16.480477385679055, "lng": -68.11097436891977}, "snapped_location": {"lat": -16.4802862, "lng": -68.11115819999999}, "grid_x": 17, "grid_y": 9, "snap_result_types": ["route"], "snap_result_place_id": "ChIJY4xhpjsgX5ERCnBLU6z-5nA"}, {"raw_location": {"lat": -16.480477385679055, "lng": -68.10793617447533}, "snapped_location": {"lat": -16.4801638, "lng": -68.1073889}, "grid_x": 18, "grid_y": 9, "snap_result_types": ["route"], "snap_result_place_id": "ChIJ1zjafzogX5ER5r9ltqhQLrA"}, {"raw_location": {"lat": -16.48339076031883, "lng": -68.16262367447533}, "snapped_location": {"lat": -16.483334, "lng": -68.16292299999999}, "grid_x": 0, "grid_y": 10, "snap_result_types": ["route"], "snap_result_place_id": "ChIJMf1QJ-bfXpER2KmbiVrHFwo"}, {"raw_location": {"lat": -16.48339076031883, "lng": -68.15958548003088}, "snapped_location": {"lat": -16.48339076031883, "lng": -68.15958548003088}, "grid_x": 1, "grid_y": 10, "snap_result_types": null, "snap_result_place_id": null}, {"raw_location": {"lat": -16.48339076031883, "lng": -68.15654728558644}, "snapped_location": {"lat": -16.485157, "lng": -68.1551434}, "grid_x": 2, "grid_y": 10, "snap_result_types": ["route"], "snap_result_place_id": "ChIJ-4Ro1O_fXpERNmKYV-8Dv8s"}, {"raw_location": {"lat": -16.48339076031883, "lng": -68.153509091142}, "snapped_location": {"lat": -16.4842381, "lng": -68.15374109999999}, "grid_x": 3, "grid_y": 10, "snap_result_types": ["route"], "snap_result_place_id": "ChIJcbdwJfDfXpERyO0IVBkYttQ"}, {"raw_location": {"lat": -16.48339076031883, "lng": -68.15047089669756}, "snapped_location": {"lat": -16.4838692, "lng": -68.14974}, "grid_x": 4, "grid_y": 10, "snap_result_types": ["route"], "snap_result_place_id": "ChIJmVO-z_DfXpERRFtjqQDAmAg"}, {"raw_location": {"lat": -16.48339076031883, "lng": -68.1474327022531}, "snapped_location": {"lat": -16.4823957, "lng": -68.147894}, "grid_x": 5, "grid_y": 10, "snap_result_types": ["route"], "snap_result_place_id": "ChIJfRxm2vvfXpER-EfATDpjbBI"}, {"raw_location": {"lat": -16.48339076031883, "lng": -68.14439450780866}, "snapped_location": {"lat": -16.4831592, "lng": -68.1446672}, "grid_x": 6, "grid_y": 10, "snap_result_types": ["route"], "snap_result_place_id": "ChIJl0Muv_ffXpER1iRsxkLdviY"}, {"raw_location": {"lat": -16.48339076031883, "lng": -68.14135631336421}, "snapped_location": {"lat": -16.4833413, "lng": -68.1418442}, "grid_x": 7, "grid_y": 10, "snap_result_types": ["route"], "snap_result_place_id": "ChIJJ4frNgggX5ER8F-gG8fhkYI"}, {"raw_location": {"lat": -16.48339076031883, "lng": -68.13831811891977}, "snapped_location": {"lat": -16.4835662, "lng": -68.1387941}, "grid_x": 8, "grid_y": 10, "snap_result_types": ["route"], "snap_result_place_id": "ChIJn1QdHgkgX5ERIGZe9AAU1DM"}, {"raw_location": {"lat": -16.48339076031883, "lng": -68.13527992447533}, "snapped_location": {"lat": -16.4841614, "lng": -68.1359738}, "grid_x": 9, "grid_y": 10, "snap_result_types": ["route"], "snap_result_place_id": "ChIJD7qWww4gX5ERBrAA-v9Q9qM"}, {"raw_location": {"lat": -16.48339076031883, "lng": -68.13224173003088}, "snapped_location": {"lat": -16.4836731, "lng": -68.1313665}, "grid_x": 10, "grid_y": 10, "snap_result_types": ["route"], "snap_result_place_id": "ChIJYUAmJw4gX5ERghe1OjZ0nt4"}, {"raw_location": {"lat": -16.48339076031883, "lng": -68.12920353558644}, "snapped_location": {"lat": -16.4833934, "lng": -68.1292828}, "grid_x": 11, "grid_y": 10, "snap_result_types": ["route"], "snap_result_place_id": "ChIJob3bpBEgX5ERuvQV6pycdmk"}, {"raw_location": {"lat": -16.48339076031883, "lng": -68.126165341142}, "snapped_location": {"lat": -16.4836045, "lng": -68.1262127}, "grid_x": 12, "grid_y": 10, "snap_result_types": ["route"], "snap_result_place_id": "ChIJaxNCRxEgX5ER3JeetB61CRA"}, {"raw_location": {"lat": -16.48339076031883, "lng": -68.12312714669756}, "snapped_location": {"lat": -16.4833837, "lng": -68.1232074}, "grid_x": 13, "grid_y": 10, "snap_result_types": ["route"], "snap_result_place_id": "ChIJ4y2tkxYgX5ERikwgSac1WVA"}, {"raw_location": {"lat": -16.48339076031883, "lng": -68.1200889522531}, "snapped_location": {"lat": -16.4831296, "lng": -68.1198596}, "grid_x": 14, "grid_y": 10, "snap_result_types": ["route"], "snap_result_place_id": "ChIJo_p4GRYgX5ERaPe5FauTYfQ"}, {"raw_location": {"lat": -16.48339076031883, "lng": -68.11705075780866}, "snapped_location": {"lat": -16.4839128, "lng": -68.11657579999999}, "grid_x": 15, "grid_y": 10, "snap_result_types": ["route"], "snap_result_place_id": "ChIJnX_11T0gX5ERjo2JdFnJMXM"}, {"raw_location": {"lat": -16.48339076031883, "lng": -68.11401256336421}, "snapped_location": {"lat": -16.4832298, "lng": -68.11400019999999}, "grid_x": 16, "grid_y": 10, "snap_result_types": ["route"], "snap_result_place_id": "ChIJ9bY6AzwgX5ERLrBVSkRw6QU"}, {"raw_location": {"lat": -16.48339076031883, "lng": -68.11097436891977}, "snapped_location": {"lat": -16.4835384, "lng": -68.111159}, "grid_x": 17, "grid_y": 10, "snap_result_types": ["route"], "snap_result_place_id": "ChIJf1JIfTkgX5ER8q7WBuySdv4"}, {"raw_location": {"lat": -16.48339076031883, "lng": -68.10793617447533}, "snapped_location": {"lat": -16.4832299, "lng": -68.10804329999999}, "grid_x": 18, "grid_y": 10, "snap_result_types": ["route"], "snap_result_place_id": "ChIJ_08r-TkgX5ERbsnhP9ytfK0"}, {"raw_location": {"lat": -16.486304134958605, "lng": -68.16262367447533}, "snapped_location": {"lat": -16.4861783, "lng": -68.16048839999999}, "grid_x": 0, "grid_y": 11, "snap_result_types": ["route"], "snap_result_place_id": "ChIJAdq7zejfXpERisUIBiA31wQ"}, {"raw_location": {"lat": -16.486304134958605, "lng": -68.15958548003088}, "snapped_location": {"lat": -16.4855897, "lng": -68.15826179999999}, "grid_x": 1, "grid_y": 11, "snap_result_types": ["route"], "snap_result_place_id": "ChIJ5QCE_e7fXpER2KBwdxvWWLI"}, {"raw_location": {"lat": -16.486304134958605, "lng": -68.15654728558644}, "snapped_location": {"lat": -16.4868625, "lng": -68.1562302}, "grid_x": 2, "grid_y": 11, "snap_result_types": ["route"], "snap_result_place_id": "ChIJv2fqFe7fXpERZIPGQLkn8pc"}, {"raw_location": {"lat": -16.486304134958605, "lng": -68.153509091142}, "snapped_location": {"lat": -16.4873453, "lng": -68.1530461}, "grid_x": 3, "grid_y": 11, "snap_result_types": ["route"], "snap_result_place_id": "ChIJxc6yiPHfXpERPOedCQv__e4"}, {"raw_location": {"lat": -16.486304134958605, "lng": -68.15047089669756}, "snapped_location": {"lat": -16.4863082, "lng": -68.15032049999999}, "grid_x": 4, "grid_y": 11, "snap_result_types": ["route"], "snap_result_place_id": "ChIJcRTpQPHfXpERAD1HguoZ3HY"}, {"raw_location": {"lat": -16.486304134958605, "lng": -68.1474327022531}, "snapped_location": {"lat": -16.4860814, "lng": -68.1467598}, "grid_x": 5, "grid_y": 11, "snap_result_types": ["route"], "snap_result_place_id": "ChIJoQFIkvbfXpERQB16cBLdQZ4"}, {"raw_location": {"lat": -16.486304134958605, "lng": -68.14439450780866}, "snapped_location": {"lat": -16.4860474, "lng": -68.1443303}, "grid_x": 6, "grid_y": 11, "snap_result_types": ["route"], "snap_result_place_id": "ChIJd5omF_bfXpERLuyYbYfQTsI"}, {"raw_location": {"lat": -16.486304134958605, "lng": -68.14135631336421}, "snapped_location": {"lat": -16.485989, "lng": -68.14194530000002}, "grid_x": 7, "grid_y": 11, "snap_result_types": ["route"], "snap_result_place_id": "ChIJ80PQ8wkgX5ERUOsK7l8dtro"}, {"raw_location": {"lat": -16.486304134958605, "lng": -68.13831811891977}, "snapped_location": {"lat": -16.4853865, "lng": -68.138796}, "grid_x": 8, "grid_y": 11, "snap_result_types": ["route"], "snap_result_place_id": "ChIJI5NiaQkgX5ERap6Bx8s7ntw"}, {"raw_location": {"lat": -16.486304134958605, "lng": -68.13527992447533}, "snapped_location": {"lat": -16.4863419, "lng": -68.1355051}, "grid_x": 9, "grid_y": 11, "snap_result_types": ["route"], "snap_result_place_id": "ChIJO0cWIQwgX5ERHlmgtFlTh-c"}, {"raw_location": {"lat": -16.486304134958605, "lng": -68.13224173003088}, "snapped_location": {"lat": -16.4866544, "lng": -68.131672}, "grid_x": 10, "grid_y": 11, "snap_result_types": ["route"], "snap_result_place_id": "ChIJ9ZJ08w0gX5ERvCoFgJjkl70"}, {"raw_location": {"lat": -16.486304134958605, "lng": -68.12920353558644}, "snapped_location": {"lat": -16.4860071, "lng": -68.1295057}, "grid_x": 11, "grid_y": 11, "snap_result_types": ["route"], "snap_result_place_id": "ChIJTzBYOxIgX5ERvi6v__KKKGA"}, {"raw_location": {"lat": -16.486304134958605, "lng": -68.126165341142}, "snapped_location": {"lat": -16.4865207, "lng": -68.1254567}, "grid_x": 12, "grid_y": 11, "snap_result_types": ["route"], "snap_result_place_id": "ChIJGyH2iRMgX5ERXovtANcbhz0"}, {"raw_location": {"lat": -16.486304134958605, "lng": -68.12312714669756}, "snapped_location": {"lat": -16.4859436, "lng": -68.1232096}, "grid_x": 13, "grid_y": 11, "snap_result_types": ["route"], "snap_result_place_id": "ChIJJdupOBQgX5ER1ryeDMbgubI"}, {"raw_location": {"lat": -16.486304134958605, "lng": -68.1200889522531}, "snapped_location": {"lat": -16.4861654, "lng": -68.1199207}, "grid_x": 14, "grid_y": 11, "snap_result_types": ["route"], "snap_result_place_id": "ChIJT-S8jxUgX5ERRv0NxUK_dQA"}, {"raw_location": {"lat": -16.486304134958605, "lng": -68.11705075780866}, "snapped_location": {"lat": -16.4865321, "lng": -68.1171033}, "grid_x": 15, "grid_y": 11, "snap_result_types": ["route"], "snap_result_place_id": "ChIJHfudTT4gX5ERFrjGKcYn_Go"}, {"raw_location": {"lat": -16.486304134958605, "lng": -68.11401256336421}, "snapped_location": {"lat": -16.4862648, "lng": -68.1135061}, "grid_x": 16, "grid_y": 11, "snap_result_types": ["route"], "snap_result_place_id": "ChIJaaR_1T4gX5ERoIcsQzawq9Q"}, {"raw_location": {"lat": -16.486304134958605, "lng": -68.11097436891977}, "snapped_location": {"lat": -16.485917, "lng": -68.1109347}, "grid_x": 17, "grid_y": 11, "snap_result_types": ["route"], "snap_result_place_id": "ChIJJWoj-zggX5ERTpSZalwBXpY"}, {"raw_location": {"lat": -16.486304134958605, "lng": -68.10793617447533}, "snapped_location": {"lat": -16.4870428, "lng": -68.10682899999999}, "grid_x": 18, "grid_y": 11, "snap_result_types": ["route"], "snap_result_place_id": "ChIJPaMOhjcgX5ER_q187OSFPeM"}, {"raw_location": {"lat": -16.489217509598376, "lng": -68.16262367447533}, "snapped_location": {"lat": -16.4893585, "lng": -68.1624033}, "grid_x": 0, "grid_y": 12, "snap_result_types": ["route"], "snap_result_place_id": "ChIJsesU5-vfXpERJCo6UkevswU"}, {"raw_location": {"lat": -16.489217509598376, "lng": -68.15958548003088}, "snapped_location": {"lat": -16.488968, "lng": -68.159527}, "grid_x": 1, "grid_y": 12, "snap_result_types": ["route"], "snap_result_place_id": "ChIJdW6rGOzfXpERZOIbtN3BfgE"}, {"raw_location": {"lat": -16.489217509598376, "lng": -68.15654728558644}, "snapped_location": {"lat": -16.4890124, "lng": -68.15644809999999}, "grid_x": 2, "grid_y": 12, "snap_result_types": ["route"], "snap_result_place_id": "ChIJQV8V6O3fXpERxGrn8noBVbA"}, {"raw_location": {"lat": -16.489217509598376, "lng": -68.153509091142}, "snapped_location": {"lat": -16.489428, "lng": -68.15326619999999}, "grid_x": 3, "grid_y": 12, "snap_result_types": ["route"], "snap_result_place_id": "ChIJG-XxQPLfXpERKspo3c8rq1s"}, {"raw_location": {"lat": -16.489217509598376, "lng": -68.15047089669756}, "snapped_location": {"lat": -16.4890752, "lng": -68.15023599999999}, "grid_x": 4, "grid_y": 12, "snap_result_types": ["route"], "snap_result_place_id": "ChIJTaWo6vPfXpERDDbpa3SrB2g"}, {"raw_location": {"lat": -16.489217509598376, "lng": -68.1474327022531}, "snapped_location": {"lat": -16.489743, "lng": -68.14757019999999}, "grid_x": 5, "grid_y": 12, "snap_result_types": ["route"], "snap_result_place_id": "ChIJPZjhXfTfXpERnNfybEq9znY"}, {"raw_location": {"lat": -16.489217509598376, "lng": -68.14439450780866}, "snapped_location": {"lat": -16.4893048, "lng": -68.14448449999999}, "grid_x": 6, "grid_y": 12, "snap_result_types": ["route"], "snap_result_place_id": "ChIJs2Y-n_XfXpERhFsgeJVCQ7s"}, {"raw_location": {"lat": -16.489217509598376, "lng": -68.14135631336421}, "snapped_location": {"lat": -16.4898254, "lng": -68.1415049}, "grid_x": 7, "grid_y": 12, "snap_result_types": ["route"], "snap_result_place_id": "ChIJ2-fvjgogX5ERrHDFn_YMOxA"}, {"raw_location": {"lat": -16.489217509598376, "lng": -68.13831811891977}, "snapped_location": {"lat": -16.4894534, "lng": -68.1379525}, "grid_x": 8, "grid_y": 12, "snap_result_types": ["route"], "snap_result_place_id": "ChIJ4zeFcAsgX5ERJIdZFky0jOI"}, {"raw_location": {"lat": -16.489217509598376, "lng": -68.13527992447533}, "snapped_location": {"lat": -16.4892148, "lng": -68.135358}, "grid_x": 9, "grid_y": 12, "snap_result_types": ["route"], "snap_result_place_id": "ChIJd3w08gwgX5ERgvJ7BNI9dH8"}, {"raw_location": {"lat": -16.489217509598376, "lng": -68.13224173003088}, "snapped_location": {"lat": -16.4889164, "lng": -68.1320173}, "grid_x": 10, "grid_y": 12, "snap_result_types": ["route"], "snap_result_place_id": "ChIJ2daUeg0gX5ERnqhNeGT3b7Q"}, {"raw_location": {"lat": -16.489217509598376, "lng": -68.12920353558644}, "snapped_location": {"lat": -16.4899857, "lng": -68.1276153}, "grid_x": 11, "grid_y": 12, "snap_result_types": ["route"], "snap_result_place_id": "ChIJpZVNKBMgX5ERjqjBMJfAMb8"}, {"raw_location": {"lat": -16.489217509598376, "lng": -68.126165341142}, "snapped_location": {"lat": -16.4889822, "lng": -68.1264856}, "grid_x": 12, "grid_y": 12, "snap_result_types": ["route"], "snap_result_place_id": "ChIJm24-ahMgX5ERKpeiNvnC71g"}, {"raw_location": {"lat": -16.489217509598376, "lng": -68.12312714669756}, "snapped_location": {"lat": -16.4901142, "lng": -68.1231497}, "grid_x": 13, "grid_y": 12, "snap_result_types": ["route"], "snap_result_place_id": "ChIJb6wuzRQgX5ERygYgzc7AH9Y"}, {"raw_location": {"lat": -16.489217509598376, "lng": -68.1200889522531}, "snapped_location": {"lat": -16.4890523, "lng": -68.1202192}, "grid_x": 14, "grid_y": 12, "snap_result_types": ["route"], "snap_result_place_id": "ChIJq-tQTxUgX5ERRq2SqRQwOK4"}, {"raw_location": {"lat": -16.489217509598376, "lng": -68.11705075780866}, "snapped_location": {"lat": -16.4890236, "lng": -68.11715819999999}, "grid_x": 15, "grid_y": 12, "snap_result_types": ["route"], "snap_result_place_id": "ChIJ8wsOjz8gX5ERuBHKzSXPNLU"}, {"raw_location": {"lat": -16.489217509598376, "lng": -68.11401256336421}, "snapped_location": {"lat": -16.4895211, "lng": -68.1144003}, "grid_x": 16, "grid_y": 12, "snap_result_types": ["route"], "snap_result_place_id": "ChIJZRBCoUAgX5ERshaIrhYqPR8"}, {"raw_location": {"lat": -16.489217509598376, "lng": -68.11097436891977}, "snapped_location": {"lat": -16.4895938, "lng": -68.1108682}, "grid_x": 17, "grid_y": 12, "snap_result_types": ["route"], "snap_result_place_id": "ChIJi7OQekcgX5ERsJrZ6u6Xdmo"}, {"raw_location": {"lat": -16.489217509598376, "lng": -68.10793617447533}, "snapped_location": {"lat": -16.4894183, "lng": -68.1080766}, "grid_x": 18, "grid_y": 12, "snap_result_types": ["route"], "snap_result_place_id": "ChIJ3Wlq6kcgX5ERFnGMmsjEh6k"}, {"raw_location": {"lat": -16.49213088423815, "lng": -68.16262367447533}, "snapped_location": {"lat": -16.4921778, "lng": -68.1627026}, "grid_x": 0, "grid_y": 13, "snap_result_types": ["route"], "snap_result_place_id": "ChIJsfMBDevfXpEReM-aZ5aA4ck"}, {"raw_location": {"lat": -16.49213088423815, "lng": -68.15958548003088}, "snapped_location": {"lat": -16.4919896, "lng": -68.1594234}, "grid_x": 1, "grid_y": 13, "snap_result_types": ["route"], "snap_result_place_id": "ChIJtc417ezfXpERbFBNZQBMzEc"}, {"raw_location": {"lat": -16.49213088423815, "lng": -68.15654728558644}, "snapped_location": {"lat": -16.4918326, "lng": -68.1565542}, "grid_x": 2, "grid_y": 13, "snap_result_types": ["route"], "snap_result_place_id": "ChIJyfS4Eu3fXpER0mEAGBRLoqY"}, {"raw_location": {"lat": -16.49213088423815, "lng": -68.153509091142}, "snapped_location": {"lat": -16.4921188, "lng": -68.1539385}, "grid_x": 3, "grid_y": 13, "snap_result_types": ["route"], "snap_result_place_id": "ChIJfdMGlvLfXpEROK7puo3YnxU"}, {"raw_location": {"lat": -16.49213088423815, "lng": -68.15047089669756}, "snapped_location": {"lat": -16.4918871, "lng": -68.150374}, "grid_x": 4, "grid_y": 13, "snap_result_types": ["route"], "snap_result_place_id": "ChIJdasbQfPfXpERvpV-2L0OGH0"}, {"raw_location": {"lat": -16.49213088423815, "lng": -68.1474327022531}, "snapped_location": {"lat": -16.4924739, "lng": -68.147718}, "grid_x": 5, "grid_y": 13, "snap_result_types": ["route"], "snap_result_place_id": "ChIJq6fdtfTfXpERTIziL5brPFs"}, {"raw_location": {"lat": -16.49213088423815, "lng": -68.14439450780866}, "snapped_location": {"lat": -16.4912735, "lng": -68.14502310000002}, "grid_x": 6, "grid_y": 13, "snap_result_types": ["route"], "snap_result_place_id": "ChIJ9-S8QPXfXpERHm70BKZLQxo"}, {"raw_location": {"lat": -16.49213088423815, "lng": -68.14135631336421}, "snapped_location": {"lat": -16.4924276, "lng": -68.14179700000001}, "grid_x": 7, "grid_y": 13, "snap_result_types": ["route"], "snap_result_place_id": "ChIJh0vAS3UgX5ERJnpJHLsbfVQ"}, {"raw_location": {"lat": -16.49213088423815, "lng": -68.13831811891977}, "snapped_location": {"lat": -16.4919192, "lng": -68.1381851}, "grid_x": 8, "grid_y": 13, "snap_result_types": ["route"], "snap_result_place_id": "ChIJPToKs3QgX5ERcBDrIQfDmTc"}, {"raw_location": {"lat": -16.49213088423815, "lng": -68.13527992447533}, "snapped_location": {"lat": -16.4920904, "lng": -68.1351806}, "grid_x": 9, "grid_y": 13, "snap_result_types": ["route"], "snap_result_place_id": "ChIJn5yRMHMgX5ERDpAzw0dc6PI"}, {"raw_location": {"lat": -16.49213088423815, "lng": -68.13224173003088}, "snapped_location": {"lat": -16.4920726, "lng": -68.1317596}, "grid_x": 10, "grid_y": 13, "snap_result_types": ["route"], "snap_result_place_id": "ChIJaQxkpHIgX5ER5D-NPrPO74s"}, {"raw_location": {"lat": -16.49213088423815, "lng": -68.12920353558644}, "snapped_location": {"lat": -16.4922764, "lng": -68.12935809999999}, "grid_x": 11, "grid_y": 13, "snap_result_types": ["route"], "snap_result_place_id": "ChIJBSMOFm0gX5ER3mcgHUXR_zs"}, {"raw_location": {"lat": -16.49213088423815, "lng": -68.126165341142}, "snapped_location": {"lat": -16.492037, "lng": -68.1260904}, "grid_x": 12, "grid_y": 13, "snap_result_types": ["route"], "snap_result_place_id": "ChIJyXgMl2wgX5ER8rDh2y3ovgQ"}, {"raw_location": {"lat": -16.49213088423815, "lng": -68.12312714669756}, "snapped_location": {"lat": -16.4926226, "lng": -68.1231237}, "grid_x": 13, "grid_y": 13, "snap_result_types": ["route"], "snap_result_place_id": "ChIJ2QjwCGsgX5ER-AbCcTCTwnE"}, {"raw_location": {"lat": -16.49213088423815, "lng": -68.1200889522531}, "snapped_location": {"lat": -16.4920706, "lng": -68.12026879999999}, "grid_x": 14, "grid_y": 13, "snap_result_types": ["route"], "snap_result_place_id": "ChIJoUUtjGogX5ERoMZQQeY0Pjk"}, {"raw_location": {"lat": -16.49213088423815, "lng": -68.11705075780866}, "snapped_location": {"lat": -16.4918886, "lng": -68.11719}, "grid_x": 15, "grid_y": 13, "snap_result_types": ["route"], "snap_result_place_id": "ChIJu7XUUUAgX5ERLBnnzWqGlCE"}, {"raw_location": {"lat": -16.49213088423815, "lng": -68.11401256336421}, "snapped_location": {"lat": -16.4922615, "lng": -68.1138728}, "grid_x": 16, "grid_y": 13, "snap_result_types": ["route"], "snap_result_place_id": "ChIJOzjJLkEgX5ERKCSg6_I8g-8"}, {"raw_location": {"lat": -16.49213088423815, "lng": -68.11097436891977}, "snapped_location": {"lat": -16.4921443, "lng": -68.11075570000001}, "grid_x": 17, "grid_y": 13, "snap_result_types": ["route"], "snap_result_place_id": "ChIJ0aKM_EYgX5ERdE-YSYyM4xo"}, {"raw_location": {"lat": -16.49213088423815, "lng": -68.10793617447533}, "snapped_location": {"lat": -16.4928102, "lng": -68.1075479}, "grid_x": 18, "grid_y": 13, "snap_result_types": ["route"], "snap_result_place_id": "ChIJ2Ul7GUYgX5ERTBbXe1hqbLQ"}, {"raw_location": {"lat": -16.495044258877925, "lng": -68.16262367447533}, "snapped_location": {"lat": -16.4950315, "lng": -68.1624775}, "grid_x": 0, "grid_y": 14, "snap_result_types": ["route"], "snap_result_place_id": "ChIJr-HTt5TfXpERbsRgc21UTqo"}, {"raw_location": {"lat": -16.495044258877925, "lng": -68.15958548003088}, "snapped_location": {"lat": -16.4950423, "lng": -68.15970949999999}, "grid_x": 1, "grid_y": 14, "snap_result_types": ["route"], "snap_result_place_id": "ChIJ03yFN5PfXpER0mxDrXxSVVA"}, {"raw_location": {"lat": -16.495044258877925, "lng": -68.15654728558644}, "snapped_location": {"lat": -16.4950582, "lng": -68.15678319999999}, "grid_x": 2, "grid_y": 14, "snap_result_types": ["route"], "snap_result_place_id": "ChIJJXESwZLfXpERHl0hK46gjUM"}, {"raw_location": {"lat": -16.495044258877925, "lng": -68.153509091142}, "snapped_location": {"lat": -16.494908, "lng": -68.15358119999999}, "grid_x": 3, "grid_y": 14, "snap_result_types": ["route"], "snap_result_place_id": "ChIJUxapao3fXpERZjuwNIZQgr8"}, {"raw_location": {"lat": -16.495044258877925, "lng": -68.15047089669756}, "snapped_location": {"lat": -16.4949432, "lng": -68.15042079999999}, "grid_x": 4, "grid_y": 14, "snap_result_types": ["route"], "snap_result_place_id": "ChIJ1QEJk4zfXpERDBhOtHM5cPM"}, {"raw_location": {"lat": -16.495044258877925, "lng": -68.1474327022531}, "snapped_location": {"lat": -16.4951407, "lng": -68.1473309}, "grid_x": 5, "grid_y": 14, "snap_result_types": ["route"], "snap_result_place_id": "ChIJw8Y4DIvfXpERYvTFZ_rvlcU"}, {"raw_location": {"lat": -16.495044258877925, "lng": -68.14439450780866}, "snapped_location": {"lat": -16.4951907, "lng": -68.14420299999999}, "grid_x": 6, "grid_y": 14, "snap_result_types": ["route"], "snap_result_place_id": "ChIJu2EQiorfXpER5h1JFfXanhw"}, {"raw_location": {"lat": -16.495044258877925, "lng": -68.14135631336421}, "snapped_location": {"lat": -16.4953657, "lng": -68.1415255}, "grid_x": 7, "grid_y": 14, "snap_result_types": ["route"], "snap_result_place_id": "ChIJiWxNonUgX5ERYkkzqmGmr3I"}, {"raw_location": {"lat": -16.495044258877925, "lng": -68.13831811891977}, "snapped_location": {"lat": -16.4951535, "lng": -68.1386304}, "grid_x": 8, "grid_y": 14, "snap_result_types": ["route"], "snap_result_place_id": "ChIJwxaJZ3QgX5ERXiGMvsPKTkM"}, {"raw_location": {"lat": -16.495044258877925, "lng": -68.13527992447533}, "snapped_location": {"lat": -16.4951941, "lng": -68.135233}, "grid_x": 9, "grid_y": 14, "snap_result_types": ["route"], "snap_result_place_id": "ChIJ1UqUu3MgX5ERgPctEDpHJ24"}, {"raw_location": {"lat": -16.495044258877925, "lng": -68.13224173003088}, "snapped_location": {"lat": -16.4951252, "lng": -68.1320904}, "grid_x": 10, "grid_y": 14, "snap_result_types": ["route"], "snap_result_place_id": "ChIJyQWobXIgX5ERJJVWWNZG-RA"}, {"raw_location": {"lat": -16.495044258877925, "lng": -68.12920353558644}, "snapped_location": {"lat": -16.4947269, "lng": -68.1291365}, "grid_x": 11, "grid_y": 14, "snap_result_types": ["route"], "snap_result_place_id": "ChIJ54iYuW0gX5ERfkFRqGYwJRg"}, {"raw_location": {"lat": -16.495044258877925, "lng": -68.126165341142}, "snapped_location": {"lat": -16.4953504, "lng": -68.1257995}, "grid_x": 12, "grid_y": 14, "snap_result_types": ["route"], "snap_result_place_id": "ChIJqcRkBWwgX5ERns3Klgwj9Ts"}, {"raw_location": {"lat": -16.495044258877925, "lng": -68.12312714669756}, "snapped_location": {"lat": -16.4952717, "lng": -68.12309259999999}, "grid_x": 13, "grid_y": 14, "snap_result_types": ["route"], "snap_result_place_id": "ChIJ80U-2msgX5ERQiugPDQVD04"}, {"raw_location": {"lat": -16.495044258877925, "lng": -68.1200889522531}, "snapped_location": {"lat": -16.4951023, "lng": -68.1203434}, "grid_x": 14, "grid_y": 14, "snap_result_types": ["route"], "snap_result_place_id": "ChIJ9T4YHGogX5ERag8jFFpo4WE"}, {"raw_location": {"lat": -16.495044258877925, "lng": -68.11705075780866}, "snapped_location": {"lat": -16.4951827, "lng": -68.1168635}, "grid_x": 15, "grid_y": 14, "snap_result_types": ["route"], "snap_result_place_id": "ChIJX41pLkIgX5ERHFrmEEywQQw"}, {"raw_location": {"lat": -16.495044258877925, "lng": -68.11401256336421}, "snapped_location": {"lat": -16.4950039, "lng": -68.1137742}, "grid_x": 16, "grid_y": 14, "snap_result_types": ["route"], "snap_result_place_id": "ChIJN7UQ_EMgX5EROvBDRZTjcGs"}, {"raw_location": {"lat": -16.495044258877925, "lng": -68.11097436891977}, "snapped_location": {"lat": -16.494867, "lng": -68.1102734}, "grid_x": 17, "grid_y": 14, "snap_result_types": ["route"], "snap_result_place_id": "ChIJkUu0L0QgX5ERTv83HGNbzD0"}, {"raw_location": {"lat": -16.495044258877925, "lng": -68.10793617447533}, "snapped_location": {"lat": -16.495074, "lng": -68.1080491}, "grid_x": 18, "grid_y": 14, "snap_result_types": ["route"], "snap_result_place_id": "ChIJg3IA8kUgX5ERzsCVHD0Myss"}, {"raw_location": {"lat": -16.4979576335177, "lng": -68.16262367447533}, "snapped_location": {"lat": -16.4978138, "lng": -68.1627542}, "grid_x": 0, "grid_y": 15, "snap_result_types": ["route"], "snap_result_place_id": "ChIJ70-iXJTfXpERJskenaek8HY"}, {"raw_location": {"lat": -16.4979576335177, "lng": -68.15958548003088}, "snapped_location": {"lat": -16.497465, "lng": -68.1591705}, "grid_x": 1, "grid_y": 15, "snap_result_types": ["route"], "snap_result_place_id": "ChIJnYZZo5PfXpERZm_OYF4dsKk"}, {"raw_location": {"lat": -16.4979576335177, "lng": -68.15654728558644}, "snapped_location": {"lat": -16.4976012, "lng": -68.156727}, "grid_x": 2, "grid_y": 15, "snap_result_types": ["route"], "snap_result_place_id": "ChIJ1yPKQ5LfXpERqvYcwDAP6PU"}, {"raw_location": {"lat": -16.4979576335177, "lng": -68.153509091142}, "snapped_location": {"lat": -16.4978693, "lng": -68.1532307}, "grid_x": 3, "grid_y": 15, "snap_result_types": ["route"], "snap_result_place_id": "ChIJGRQ1wY3fXpERMK0uJptfn9E"}, {"raw_location": {"lat": -16.4979576335177, "lng": -68.15047089669756}, "snapped_location": {"lat": -16.4980753, "lng": -68.1506546}, "grid_x": 4, "grid_y": 15, "snap_result_types": ["route"], "snap_result_place_id": "ChIJIfy3IozfXpERxP40BtvKBAM"}, {"raw_location": {"lat": -16.4979576335177, "lng": -68.1474327022531}, "snapped_location": {"lat": -16.4978342, "lng": -68.1473902}, "grid_x": 5, "grid_y": 15, "snap_result_types": ["route"], "snap_result_place_id": "ChIJIbsR3YvfXpERPpVljdoJwHM"}, {"raw_location": {"lat": -16.4979576335177, "lng": -68.14439450780866}, "snapped_location": {"lat": -16.4981386, "lng": -68.1444136}, "grid_x": 6, "grid_y": 15, "snap_result_types": ["route"], "snap_result_place_id": "ChIJQXRs9InfXpERdi08ZRwSgvc"}, {"raw_location": {"lat": -16.4979576335177, "lng": -68.14135631336421}, "snapped_location": {"lat": -16.4978762, "lng": -68.1414786}, "grid_x": 7, "grid_y": 15, "snap_result_types": ["route"], "snap_result_place_id": "ChIJefxkdHYgX5ERHEpsflxV3dI"}, {"raw_location": {"lat": -16.4979576335177, "lng": -68.13831811891977}, "snapped_location": {"lat": -16.4979587, "lng": -68.1379895}, "grid_x": 8, "grid_y": 15, "snap_result_types": ["route"], "snap_result_place_id": "ChIJ-YNPpXYgX5ERcGNipsuAOGo"}, {"raw_location": {"lat": -16.4979576335177, "lng": -68.13527992447533}, "snapped_location": {"lat": -16.497574, "lng": -68.1352912}, "grid_x": 9, "grid_y": 15, "snap_result_types": ["route"], "snap_result_place_id": "ChIJ6eEIZnEgX5ERoOYV3qMFzeQ"}, {"raw_location": {"lat": -16.4979576335177, "lng": -68.13224173003088}, "snapped_location": {"lat": -16.4981766, "lng": -68.1318385}, "grid_x": 10, "grid_y": 15, "snap_result_types": ["route"], "snap_result_place_id": "ChIJHT4W3XEgX5ER6Ic1h9lWhQc"}, {"raw_location": {"lat": -16.4979576335177, "lng": -68.12920353558644}, "snapped_location": {"lat": -16.4979349, "lng": -68.1287938}, "grid_x": 11, "grid_y": 15, "snap_result_types": ["route"], "snap_result_place_id": "ChIJqZr_XG4gX5ERYhu18eptahI"}, {"raw_location": {"lat": -16.4979576335177, "lng": -68.126165341142}, "snapped_location": {"lat": -16.4977136, "lng": -68.1260777}, "grid_x": 12, "grid_y": 15, "snap_result_types": ["route"], "snap_result_place_id": "ChIJy6WMxm4gX5ERgHuA7Rxgwo8"}, {"raw_location": {"lat": -16.4979576335177, "lng": -68.12312714669756}, "snapped_location": {"lat": -16.4975596, "lng": -68.12309909999999}, "grid_x": 13, "grid_y": 15, "snap_result_types": ["route"], "snap_result_place_id": "ChIJofSfGmkgX5ERfPbqM33oLlU"}, {"raw_location": {"lat": -16.4979576335177, "lng": -68.1200889522531}, "snapped_location": {"lat": -16.4982734, "lng": -68.1202223}, "grid_x": 14, "grid_y": 15, "snap_result_types": ["route"], "snap_result_place_id": "ChIJZ6ECM2ggX5ERUgjLAQpHwbs"}, {"raw_location": {"lat": -16.4979576335177, "lng": -68.11705075780866}, "snapped_location": {"lat": -16.497809, "lng": -68.1166729}, "grid_x": 15, "grid_y": 15, "snap_result_types": ["route"], "snap_result_place_id": "ChIJf5oSVkIgX5ERTBuWa3Xexqw"}, {"raw_location": {"lat": -16.4979576335177, "lng": -68.11401256336421}, "snapped_location": {"lat": -16.4981642, "lng": -68.1142268}, "grid_x": 16, "grid_y": 15, "snap_result_types": ["route"], "snap_result_place_id": "ChIJPZvTcUMgX5ERBs_1yDAb04Y"}, {"raw_location": {"lat": -16.4979576335177, "lng": -68.11097436891977}, "snapped_location": {"lat": -16.4979573, "lng": -68.1111791}, "grid_x": 17, "grid_y": 15, "snap_result_types": ["route"], "snap_result_place_id": "ChIJ0U6j70QgX5ERSheLbTbbrP8"}, {"raw_location": {"lat": -16.4979576335177, "lng": -68.10793617447533}, "snapped_location": {"lat": -16.4980917, "lng": -68.1078208}, "grid_x": 18, "grid_y": 15, "snap_result_types": ["route"], "snap_result_place_id": "ChIJyTBvZ0UgX5ER_nJy6HcyyFM"}, {"raw_location": {"lat": -16.50087100815747, "lng": -68.16262367447533}, "snapped_location": {"lat": -16.50087100815747, "lng": -68.16262367447533}, "grid_x": 0, "grid_y": 16, "snap_result_types": null, "snap_result_place_id": null}, {"raw_location": {"lat": -16.50087100815747, "lng": -68.15958548003088}, "snapped_location": {"lat": -16.5013986, "lng": -68.1600698}, "grid_x": 1, "grid_y": 16, "snap_result_types": ["route"], "snap_result_place_id": "ChIJnykPOZHfXpERCGDTKMzJaOg"}, {"raw_location": {"lat": -16.50087100815747, "lng": -68.15654728558644}, "snapped_location": {"lat": -16.5006496, "lng": -68.1566443}, "grid_x": 2, "grid_y": 16, "snap_result_types": ["route"], "snap_result_place_id": "ChIJj2fav5HfXpER8OeKeGa6Ojg"}, {"raw_location": {"lat": -16.50087100815747, "lng": -68.153509091142}, "snapped_location": {"lat": -16.5005842, "lng": -68.1535087}, "grid_x": 3, "grid_y": 16, "snap_result_types": ["route"], "snap_result_place_id": "ChIJI8egP47fXpER5I7uXnK-F9Q"}, {"raw_location": {"lat": -16.50087100815747, "lng": -68.15047089669756}, "snapped_location": {"lat": -16.501002, "lng": -68.15080999999999}, "grid_x": 4, "grid_y": 16, "snap_result_types": ["route"], "snap_result_place_id": "ChIJWbI-5o7fXpERfM7KDME5JtY"}, {"raw_location": {"lat": -16.50087100815747, "lng": -68.1474327022531}, "snapped_location": {"lat": -16.5009676, "lng": -68.1473769}, "grid_x": 5, "grid_y": 16, "snap_result_types": ["route"], "snap_result_place_id": "ChIJPxEjIInfXpER8tKESUHFTIY"}, {"raw_location": {"lat": -16.50087100815747, "lng": -68.14439450780866}, "snapped_location": {"lat": -16.5009305, "lng": -68.14457469999999}, "grid_x": 6, "grid_y": 16, "snap_result_types": ["route"], "snap_result_place_id": "ChIJS4YMtYnfXpERPC2kreEzMnI"}, {"raw_location": {"lat": -16.50087100815747, "lng": -68.14135631336421}, "snapped_location": {"lat": -16.5008405, "lng": -68.1415025}, "grid_x": 7, "grid_y": 16, "snap_result_types": ["route"], "snap_result_place_id": "ChIJDVDZtXcgX5ERLrPa0ZSTajc"}, {"raw_location": {"lat": -16.50087100815747, "lng": -68.13831811891977}, "snapped_location": {"lat": -16.5008982, "lng": -68.1386217}, "grid_x": 8, "grid_y": 16, "snap_result_types": ["route"], "snap_result_place_id": "ChIJg156PXcgX5ERBOY_2yyND18"}, {"raw_location": {"lat": -16.50087100815747, "lng": -68.13527992447533}, "snapped_location": {"lat": -16.5010086, "lng": -68.13531859999999}, "grid_x": 9, "grid_y": 16, "snap_result_types": ["route"], "snap_result_place_id": "ChIJY39w63AgX5ER7sIBsrA4Lr0"}, {"raw_location": {"lat": -16.50087100815747, "lng": -68.13224173003088}, "snapped_location": {"lat": -16.5009862, "lng": -68.13193869999999}, "grid_x": 10, "grid_y": 16, "snap_result_types": ["route"], "snap_result_place_id": "ChIJUbxiF3AgX5ERrs5hTFteSNg"}, {"raw_location": {"lat": -16.50087100815747, "lng": -68.12920353558644}, "snapped_location": {"lat": -16.5004289, "lng": -68.1295952}, "grid_x": 11, "grid_y": 16, "snap_result_types": ["route"], "snap_result_place_id": "ChIJs7oiv28gX5ERuE6aVijZxIQ"}, {"raw_location": {"lat": -16.50087100815747, "lng": -68.126165341142}, "snapped_location": {"lat": -16.5006319, "lng": -68.1266442}, "grid_x": 12, "grid_y": 16, "snap_result_types": ["route"], "snap_result_place_id": "ChIJmw6abG8gX5ER7GEIuzQuQNk"}, {"raw_location": {"lat": -16.50087100815747, "lng": -68.12312714669756}, "snapped_location": {"lat": -16.5006579, "lng": -68.1234686}, "grid_x": 13, "grid_y": 16, "snap_result_types": ["route"], "snap_result_place_id": "ChIJ_VXsmWggX5ER7rKR4tLC2kI"}, {"raw_location": {"lat": -16.50087100815747, "lng": -68.1200889522531}, "snapped_location": {"lat": -16.500901, "lng": -68.1200664}, "grid_x": 14, "grid_y": 16, "snap_result_types": ["route"], "snap_result_place_id": "ChIJmwQCCGggX5ERGk5x_JGvfwY"}, {"raw_location": {"lat": -16.50087100815747, "lng": -68.11705075780866}, "snapped_location": {"lat": -16.5008539, "lng": -68.1169658}, "grid_x": 15, "grid_y": 16, "snap_result_types": ["route"], "snap_result_place_id": "ChIJM0S0LV0gX5ERJqyTQkAhyJg"}, {"raw_location": {"lat": -16.50087100815747, "lng": -68.11401256336421}, "snapped_location": {"lat": -16.5004706, "lng": -68.11425179999999}, "grid_x": 16, "grid_y": 16, "snap_result_types": ["route"], "snap_result_place_id": "ChIJfdmSslwgX5ERUqB9vTrOuPM"}, {"raw_location": {"lat": -16.50087100815747, "lng": -68.11097436891977}, "snapped_location": {"lat": -16.5007988, "lng": -68.1109008}, "grid_x": 17, "grid_y": 16, "snap_result_types": ["route"], "snap_result_place_id": "ChIJ5WuKOlsgX5ERFmahzmddg8A"}, {"raw_location": {"lat": -16.50087100815747, "lng": -68.10793617447533}, "snapped_location": {"lat": -16.5005329, "lng": -68.1080974}, "grid_x": 18, "grid_y": 16, "snap_result_types": ["route"], "snap_result_place_id": "ChIJw-3LpFogX5ERktcQohUFMl0"}, {"raw_location": {"lat": -16.503784382797246, "lng": -68.16262367447533}, "snapped_location": {"lat": -16.5038822, "lng": -68.16263909999999}, "grid_x": 0, "grid_y": 17, "snap_result_types": ["route"], "snap_result_place_id": "ChIJg5bQFZffXpER7HU0JY9w66Q"}, {"raw_location": {"lat": -16.503784382797246, "lng": -68.15958548003088}, "snapped_location": {"lat": -16.5040639, "lng": -68.1588318}, "grid_x": 1, "grid_y": 17, "snap_result_types": ["route"], "snap_result_place_id": "ChIJ198EkpDfXpERgtaWV-F1N4A"}, {"raw_location": {"lat": -16.503784382797246, "lng": -68.15654728558644}, "snapped_location": {"lat": -16.5031271, "lng": -68.15578459999999}, "grid_x": 2, "grid_y": 17, "snap_result_types": ["route"], "snap_result_place_id": "ChIJceFVI5DfXpEROjpSllb93PU"}, {"raw_location": {"lat": -16.503784382797246, "lng": -68.153509091142}, "snapped_location": {"lat": -16.5033817, "lng": -68.15311729999999}, "grid_x": 3, "grid_y": 17, "snap_result_types": ["route"], "snap_result_place_id": "ChIJM7Jnlo_fXpERRtndzgDgw0Y"}, {"raw_location": {"lat": -16.503784382797246, "lng": -68.15047089669756}, "snapped_location": {"lat": -16.5039358, "lng": -68.1503913}, "grid_x": 4, "grid_y": 17, "snap_result_types": ["route"], "snap_result_place_id": "ChIJ9QrVXY_fXpERAP6_Oq3SJmk"}, {"raw_location": {"lat": -16.503784382797246, "lng": -68.1474327022531}, "snapped_location": {"lat": -16.5039373, "lng": -68.14768409999999}, "grid_x": 5, "grid_y": 17, "snap_result_types": ["route"], "snap_result_place_id": "ChIJtT1toIjfXpEREKPgLpW7MJ4"}, {"raw_location": {"lat": -16.503784382797246, "lng": -68.14439450780866}, "snapped_location": {"lat": -16.5038052, "lng": -68.1441373}, "grid_x": 6, "grid_y": 17, "snap_result_types": ["route"], "snap_result_place_id": "ChIJO5zq44ffXpERLi99Y4_aPww"}, {"raw_location": {"lat": -16.503784382797246, "lng": -68.14135631336421}, "snapped_location": {"lat": -16.5036991, "lng": -68.1417457}, "grid_x": 7, "grid_y": 17, "snap_result_types": ["route"], "snap_result_place_id": "ChIJ4T3AGHggX5ER1CGUUEaY5GQ"}, {"raw_location": {"lat": -16.503784382797246, "lng": -68.13831811891977}, "snapped_location": {"lat": -16.503684, "lng": -68.1382695}, "grid_x": 8, "grid_y": 17, "snap_result_types": ["route"], "snap_result_place_id": "ChIJAbWt6HkgX5ERxP61Iw46PZU"}, {"raw_location": {"lat": -16.503784382797246, "lng": -68.13527992447533}, "snapped_location": {"lat": -16.5039317, "lng": -68.1351961}, "grid_x": 9, "grid_y": 17, "snap_result_types": ["route"], "snap_result_place_id": "ChIJ5VmxaXogX5ERAGPlr106Sfo"}, {"raw_location": {"lat": -16.503784382797246, "lng": -68.13224173003088}, "snapped_location": {"lat": -16.5039657, "lng": -68.1318417}, "grid_x": 10, "grid_y": 17, "snap_result_types": ["route"], "snap_result_place_id": "ChIJC98wz3ogX5ERqDr2apNI2mA"}, {"raw_location": {"lat": -16.503784382797246, "lng": -68.12920353558644}, "snapped_location": {"lat": -16.5034816, "lng": -68.12932649999999}, "grid_x": 11, "grid_y": 17, "snap_result_types": ["route"], "snap_result_place_id": "ChIJdWabE2UgX5ER1vtvP_RPFJg"}, {"raw_location": {"lat": -16.503784382797246, "lng": -68.126165341142}, "snapped_location": {"lat": -16.503508, "lng": -68.1266122}, "grid_x": 12, "grid_y": 17, "snap_result_types": ["route"], "snap_result_place_id": "ChIJbQyEvGUgX5ERTtpnJDwByuU"}, {"raw_location": {"lat": -16.503784382797246, "lng": -68.12312714669756}, "snapped_location": {"lat": -16.5035108, "lng": -68.1235537}, "grid_x": 13, "grid_y": 17, "snap_result_types": ["route"], "snap_result_place_id": "ChIJkZwAamYgX5ER5IA23rVEvT4"}, {"raw_location": {"lat": -16.503784382797246, "lng": -68.1200889522531}, "snapped_location": {"lat": -16.5038882, "lng": -68.11983959999999}, "grid_x": 14, "grid_y": 17, "snap_result_types": ["route"], "snap_result_place_id": "ChIJZc4OeWcgX5ERQtnK4AN26QY"}, {"raw_location": {"lat": -16.503784382797246, "lng": -68.11705075780866}, "snapped_location": {"lat": -16.5037624, "lng": -68.1170958}, "grid_x": 15, "grid_y": 17, "snap_result_types": ["route"], "snap_result_place_id": "ChIJNXn9pV0gX5ERGkmwdm9Xxy0"}, {"raw_location": {"lat": -16.503784382797246, "lng": -68.11401256336421}, "snapped_location": {"lat": -16.5035695, "lng": -68.1149224}, "grid_x": 16, "grid_y": 17, "snap_result_types": ["route"], "snap_result_place_id": "ChIJmfNHXFwgX5ER9EabHM_Y4hY"}, {"raw_location": {"lat": -16.503784382797246, "lng": -68.11097436891977}, "snapped_location": {"lat": -16.5040466, "lng": -68.1111349}, "grid_x": 17, "grid_y": 17, "snap_result_types": ["route"], "snap_result_place_id": "ChIJR8_vuVsgX5ER6C3hJaeZxlk"}, {"raw_location": {"lat": -16.503784382797246, "lng": -68.10793617447533}, "snapped_location": {"lat": -16.5037482, "lng": -68.10703749999999}, "grid_x": 18, "grid_y": 17, "snap_result_types": ["route"], "snap_result_place_id": "ChIJSwSNoVAgX5ERxGFqva2bOQ0"}, {"raw_location": {"lat": -16.50669775743702, "lng": -68.16262367447533}, "snapped_location": {"lat": -16.5065733, "lng": -68.1625116}, "grid_x": 0, "grid_y": 18, "snap_result_types": ["route"], "snap_result_place_id": "ChIJzV0BwpnfXpERgORdRZmZ7Hc"}, {"raw_location": {"lat": -16.50669775743702, "lng": -68.15958548003088}, "snapped_location": {"lat": -16.5066062, "lng": -68.1598501}, "grid_x": 1, "grid_y": 18, "snap_result_types": ["route"], "snap_result_place_id": "ChIJf3MCPprfXpERyPgypa5EwRA"}, {"raw_location": {"lat": -16.50669775743702, "lng": -68.15654728558644}, "snapped_location": {"lat": -16.5068954, "lng": -68.156301}, "grid_x": 2, "grid_y": 18, "snap_result_types": ["route"], "snap_result_place_id": "ChIJKUY5w5rfXpERnszI99lDR5c"}, {"raw_location": {"lat": -16.50669775743702, "lng": -68.153509091142}, "snapped_location": {"lat": -16.5074062, "lng": -68.1534387}, "grid_x": 3, "grid_y": 18, "snap_result_types": ["route"], "snap_result_place_id": "ChIJr9sp4ITfXpERTvONLSIoL_A"}, {"raw_location": {"lat": -16.50669775743702, "lng": -68.15047089669756}, "snapped_location": {"lat": -16.5068525, "lng": -68.1511475}, "grid_x": 4, "grid_y": 18, "snap_result_types": ["route"], "snap_result_place_id": "ChIJBTDJs4XfXpERojvstuJJagU"}, {"raw_location": {"lat": -16.50669775743702, "lng": -68.1474327022531}, "snapped_location": {"lat": -16.506519, "lng": -68.1471748}, "grid_x": 5, "grid_y": 18, "snap_result_types": ["route"], "snap_result_place_id": "ChIJB0zbWIbfXpERzjZtsIgbnG8"}, {"raw_location": {"lat": -16.50669775743702, "lng": -68.14439450780866}, "snapped_location": {"lat": -16.5064697, "lng": -68.1442702}, "grid_x": 6, "grid_y": 18, "snap_result_types": ["route"], "snap_result_place_id": "ChIJBUjPdYffXpER4qwY3FQ86Hk"}, {"raw_location": {"lat": -16.50669775743702, "lng": -68.14135631336421}, "snapped_location": {"lat": -16.5071809, "lng": -68.141339}, "grid_x": 7, "grid_y": 18, "snap_result_types": ["route"], "snap_result_place_id": "ChIJRQ6k63ggX5EREHb0RdP7tpA"}, {"raw_location": {"lat": -16.50669775743702, "lng": -68.13831811891977}, "snapped_location": {"lat": -16.5065803, "lng": -68.1384375}, "grid_x": 8, "grid_y": 18, "snap_result_types": ["route"], "snap_result_place_id": "ChIJHcpCbHkgX5ER_lWR9RxwjDI"}, {"raw_location": {"lat": -16.50669775743702, "lng": -68.13527992447533}, "snapped_location": {"lat": -16.5068157, "lng": -68.1352452}, "grid_x": 9, "grid_y": 18, "snap_result_types": ["route"], "snap_result_place_id": "ChIJIc8WlnsgX5ERlLVxwxELjhE"}, {"raw_location": {"lat": -16.50669775743702, "lng": -68.13224173003088}, "snapped_location": {"lat": -16.5064846, "lng": -68.1320199}, "grid_x": 10, "grid_y": 18, "snap_result_types": ["route"], "snap_result_place_id": "ChIJcwHDR3sgX5ERjvGMTMtq4nw"}, {"raw_location": {"lat": -16.50669775743702, "lng": -68.12920353558644}, "snapped_location": {"lat": -16.5069233, "lng": -68.12906149999999}, "grid_x": 11, "grid_y": 18, "snap_result_types": ["route"], "snap_result_place_id": "ChIJWweCnGQgX5ERBMJeVdPtTj0"}, {"raw_location": {"lat": -16.50669775743702, "lng": -68.126165341142}, "snapped_location": {"lat": -16.5066566, "lng": -68.1260082}, "grid_x": 12, "grid_y": 18, "snap_result_types": ["route"], "snap_result_place_id": "ChIJ00ZiD2QgX5ER3lYfQIUj7-s"}, {"raw_location": {"lat": -16.50669775743702, "lng": -68.12312714669756}, "snapped_location": {"lat": -16.5078763, "lng": -68.1229632}, "grid_x": 13, "grid_y": 18, "snap_result_types": ["route"], "snap_result_place_id": "ChIJueU9H2EgX5ER_E1EaCKIl_8"}, {"raw_location": {"lat": -16.50669775743702, "lng": -68.1200889522531}, "snapped_location": {"lat": -16.5073254, "lng": -68.11990589999999}, "grid_x": 14, "grid_y": 18, "snap_result_types": ["route"], "snap_result_place_id": "ChIJUyxNpGAgX5ERKpYM_iFmaAo"}, {"raw_location": {"lat": -16.50669775743702, "lng": -68.11705075780866}, "snapped_location": {"lat": -16.507367, "lng": -68.11662439999999}, "grid_x": 15, "grid_y": 18, "snap_result_types": ["route"], "snap_result_place_id": "ChIJ-bLZh14gX5ERhhUxYwgQNMw"}, {"raw_location": {"lat": -16.50669775743702, "lng": -68.11401256336421}, "snapped_location": {"lat": -16.5064198, "lng": -68.113873}, "grid_x": 16, "grid_y": 18, "snap_result_types": ["route"], "snap_result_place_id": "ChIJ26U3rl4gX5ERRvmCR2yTCyY"}, {"raw_location": {"lat": -16.50669775743702, "lng": -68.11097436891977}, "snapped_location": {"lat": -16.5066578, "lng": -68.1109879}, "grid_x": 17, "grid_y": 18, "snap_result_types": ["route"], "snap_result_place_id": "ChIJz5Cnc1kgX5ERiCoG86tS1a0"}, {"raw_location": {"lat": -16.50669775743702, "lng": -68.10793617447533}, "snapped_location": {"lat": -16.5068334, "lng": -68.1080605}, "grid_x": 18, "grid_y": 18, "snap_result_types": ["route"], "snap_result_place_id": "ChIJSQq53FkgX5ER2FbMnhwTK5Y"}], "route_matrix": [{"originIndex": 0, "destinationIndex": 19, "status": {}, "distanceMeters": 425, "duration": "97s", "condition": "ROUTE_EXISTS"}, {"originIndex": 0, "destinationIndex": 20, "status": {}, "distanceMeters": 648, "duration": "168s", "condition": "ROUTE_EXISTS"}, {"originIndex": 0, "destinationIndex": 21, "status": {}, "distanceMeters": 2573, "duration": "549s", "condition": "ROUTE_EXISTS"}, {"originIndex": 0, "destinationIndex": 2, "status": {}, "distanceMeters": 2314, "duration": "493s", "condition": "ROUTE_EXISTS"}, {"originIndex": 0, "destinationIndex": 38, "status": {}, "distanceMeters": 1229, "duration": "266s", "condition": "ROUTE_EXISTS"}, {"originIndex": 0, "destinationIndex": 1, "status": {}, "distanceMeters": 744, "duration": "197s", "condition": "ROUTE_EXISTS"}, {"originIndex": 1, "destinationIndex": 39, "status": {}, "distanceMeters": 2410, "duration": "563s", "condition": "ROUTE_EXISTS"}, {"originIndex": 1, "destinationIndex": 21, "status": {}, "distanceMeters": 3316, "duration": "754s", "condition": "ROUTE_EXISTS"}, {"originIndex": 1, "destinationIndex": 20, "status": {}, "distanceMeters": 1391, "duration": "372s", "condition": "ROUTE_EXISTS"}, {"originIndex": 1, "destinationIndex": 3, "status": {}, "distanceMeters": 4166, "duration": "936s", "condition": "ROUTE_EXISTS"}, {"originIndex": 1, "destinationIndex": 19, "status": {}, "distanceMeters": 1168, "duration": "301s", "condition": "ROUTE_EXISTS"}, {"originIndex": 1, "destinationIndex": 2, "status": {}, "distanceMeters": 3058, "duration": "697s", "condition": "ROUTE_EXISTS"}, {"originIndex": 2, "destinationIndex": 21, "status": {}, "distanceMeters": 371, "duration": "93s", "condition": "ROUTE_EXISTS"}, {"originIndex": 2, "destinationIndex": 19, "status": {}, "distanceMeters": 1890, "duration": "391s", "condition": "ROUTE_EXISTS"}, {"originIndex": 2, "destinationIndex": 20, "status": {}, "distanceMeters": 2082, "duration": "451s", "condition": "ROUTE_EXISTS"}, {"originIndex": 2, "destinationIndex": 40, "status": {}, "distanceMeters": 721, "duration": "174s", "condition": "ROUTE_EXISTS"}, {"originIndex": 2, "destinationIndex": 3, "status": {}, "distanceMeters": 1108, "duration": "239s", "condition": "ROUTE_EXISTS"}, {"originIndex": 2, "destinationIndex": 4, "status": {}, "distanceMeters": 1842, "duration": "391s", "condition": "ROUTE_EXISTS"}, {"originIndex": 2, "destinationIndex": 22, "status": {}, "distanceMeters": 1171, "duration": "257s", "condition": "ROUTE_EXISTS"}, {"originIndex": 3, "destinationIndex": 21, "status": {}, "distanceMeters": 1054, "duration": "267s", "condition": "ROUTE_EXISTS"}, {"originIndex": 3, "destinationIndex": 5, "status": {}, "distanceMeters": 2235, "duration": "458s", "condition": "ROUTE_EXISTS"}, {"originIndex": 3, "destinationIndex": 4, "status": {}, "distanceMeters": 787, "duration": "161s", "condition": "ROUTE_EXISTS"}, {"originIndex": 3, "destinationIndex": 22, "status": {}, "distanceMeters": 568, "duration": "125s", "condition": "ROUTE_EXISTS"}, {"originIndex": 3, "destinationIndex": 23, "status": {}, "distanceMeters": 790, "duration": "175s", "condition": "ROUTE_EXISTS"}, {"originIndex": 4, "destinationIndex": 23, "status": {}, "distanceMeters": 544, "duration": "134s", "condition": "ROUTE_EXISTS"}, {"originIndex": 4, "destinationIndex": 22, "status": {}, "distanceMeters": 885, "duration": "183s", "condition": "ROUTE_EXISTS"}, {"originIndex": 4, "destinationIndex": 21, "status": {}, "distanceMeters": 1602, "duration": "353s", "condition": "ROUTE_EXISTS"}, {"originIndex": 4, "destinationIndex": 5, "status": {}, "distanceMeters": 1401, "duration": "298s", "condition": "ROUTE_EXISTS"}, {"originIndex": 4, "destinationIndex": 42, "status": {}, "distanceMeters": 716, "duration": "168s", "condition": "ROUTE_EXISTS"}, {"originIndex": 4, "destinationIndex": 6, "status": {}, "distanceMeters": 10681, "duration": "1092s", "condition": "ROUTE_EXISTS"}, {"originIndex": 4, "destinationIndex": 24, "status": {}, "distanceMeters": 9732, "duration": "925s", "condition": "ROUTE_EXISTS"}, {"originIndex": 5, "destinationIndex": 22, "status": {}, "distanceMeters": 2286, "duration": "491s", "condition": "ROUTE_EXISTS"}, {"originIndex": 5, "destinationIndex": 6, "status": {}, "distanceMeters": 1059, "duration": "258s", "condition": "ROUTE_EXISTS"}, {"originIndex": 5, "destinationIndex": 25, "status": {}, "distanceMeters": 1435, "duration": "319s", "condition": "ROUTE_EXISTS"}, {"originIndex": 5, "destinationIndex": 23, "status": {}, "distanceMeters": 1789, "duration": "393s", "condition": "ROUTE_EXISTS"}, {"originIndex": 5, "destinationIndex": 24, "status": {}, "distanceMeters": 1181, "duration": "243s", "condition": "ROUTE_EXISTS"}, {"originIndex": 5, "destinationIndex": 43, "status": {}, "distanceMeters": 2996, "duration": "490s", "condition": "ROUTE_EXISTS"}, {"originIndex": 5, "destinationIndex": 44, "status": {}, "distanceMeters": 1853, "duration": "390s", "condition": "ROUTE_EXISTS"}, {"originIndex": 6, "destinationIndex": 7, "status": {}, "distanceMeters": 3935, "duration": "992s", "condition": "ROUTE_EXISTS"}, {"originIndex": 6, "destinationIndex": 26, "status": {}, "distanceMeters": 6215, "duration": "1373s", "condition": "ROUTE_EXISTS"}, {"originIndex": 6, "destinationIndex": 44, "status": {}, "distanceMeters": 6849, "duration": "1508s", "condition": "ROUTE_EXISTS"}, {"originIndex": 6, "destinationIndex": 25, "status": {}, "distanceMeters": 7268, "duration": "1575s", "condition": "ROUTE_EXISTS"}, {"originIndex": 6, "destinationIndex": 24, "status": {}, "distanceMeters": 949, "duration": "163s", "condition": "ROUTE_EXISTS"}, {"originIndex": 7, "destinationIndex": 9, "status": {}, "distanceMeters": 2505, "duration": "512s", "condition": "ROUTE_EXISTS"}, {"originIndex": 7, "destinationIndex": 8, "status": {}, "distanceMeters": 2725, "duration": "558s", "condition": "ROUTE_EXISTS"}, {"originIndex": 7, "destinationIndex": 27, "status": {}, "distanceMeters": 3631, "duration": "787s", "condition": "ROUTE_EXISTS"}, {"originIndex": 7, "destinationIndex": 26, "status": {}, "distanceMeters": 3284, "duration": "691s", "condition": "ROUTE_EXISTS"}, {"originIndex": 8, "destinationIndex": 9, "status": {}, "distanceMeters": 286, "duration": "64s", "condition": "ROUTE_EXISTS"}, {"originIndex": 8, "destinationIndex": 46, "status": {}, "distanceMeters": 1549, "duration": "340s", "condition": "ROUTE_EXISTS"}, {"originIndex": 8, "destinationIndex": 28, "status": {}, "distanceMeters": 1026, "duration": "236s", "condition": "ROUTE_EXISTS"}, {"originIndex": 8, "destinationIndex": 10, "status": {}, "distanceMeters": 1897, "duration": "414s", "condition": "ROUTE_EXISTS"}, {"originIndex": 8, "destinationIndex": 29, "status": {}, "distanceMeters": 1697, "duration": "385s", "condition": "ROUTE_EXISTS"}, {"originIndex": 8, "destinationIndex": 27, "status": {}, "distanceMeters": 906, "duration": "229s", "condition": "ROUTE_EXISTS"}, {"originIndex": 8, "destinationIndex": 26, "status": {}, "distanceMeters": 559, "duration": "133s", "condition": "ROUTE_EXISTS"}, {"originIndex": 9, "destinationIndex": 46, "status": {}, "distanceMeters": 1836, "duration": "408s", "condition": "ROUTE_EXISTS"}, {"originIndex": 9, "destinationIndex": 11, "status": {}, "distanceMeters": 1982, "duration": "444s", "condition": "ROUTE_EXISTS"}, {"originIndex": 9, "destinationIndex": 30, "status": {}, "distanceMeters": 2526, "duration": "575s", "condition": "ROUTE_EXISTS"}, {"originIndex": 9, "destinationIndex": 10, "status": {}, "distanceMeters": 1677, "duration": "368s", "condition": "ROUTE_EXISTS"}, {"originIndex": 9, "destinationIndex": 29, "status": {}, "distanceMeters": 1984, "duration": "452s", "condition": "ROUTE_EXISTS"}, {"originIndex": 9, "destinationIndex": 27, "status": {}, "distanceMeters": 1193, "duration": "296s", "condition": "ROUTE_EXISTS"}, {"originIndex": 9, "destinationIndex": 28, "status": {}, "distanceMeters": 1313, "duration": "304s", "condition": "ROUTE_EXISTS"}, {"originIndex": 10, "destinationIndex": 29, "status": {}, "distanceMeters": 1093, "duration": "236s", "condition": "ROUTE_EXISTS"}, {"originIndex": 10, "destinationIndex": 12, "status": {}, "distanceMeters": 546, "duration": "132s", "condition": "ROUTE_EXISTS"}, {"originIndex": 10, "destinationIndex": 49, "status": {}, "distanceMeters": 1296, "duration": "296s", "condition": "ROUTE_EXISTS"}, {"originIndex": 10, "destinationIndex": 30, "status": {}, "distanceMeters": 1324, "duration": "302s", "condition": "ROUTE_EXISTS"}, {"originIndex": 10, "destinationIndex": 11, "status": {}, "distanceMeters": 474, "duration": "118s", "condition": "ROUTE_EXISTS"}, {"originIndex": 10, "destinationIndex": 28, "status": {}, "distanceMeters": 1566, "duration": "328s", "condition": "ROUTE_EXISTS"}, {"originIndex": 10, "destinationIndex": 48, "status": {}, "distanceMeters": 1539, "duration": "354s", "condition": "ROUTE_EXISTS"}, {"originIndex": 11, "destinationIndex": 31, "status": {}, "distanceMeters": 1248, "duration": "289s", "condition": "ROUTE_EXISTS"}, {"originIndex": 11, "destinationIndex": 50, "status": {},